"Name","Url","Telephone","Latitude","Longitude","Address","County","Tags"
"Hungry Boba Pizzeria","https://www.hungrybobapizzeria.ie/","0035316336814","53.351338","-6.2795464","Unit 4, 8 Grangegorman Lower, Dublin, D07 X97Y","Dublin","Activity,Food and Drink,Experience,Restaurant,Fast Food"
"A Rural Experience Day Tours","http://www.aruralexperience.com","00353567727590","52.6297968743748","-7.07423970149609","Castlefield, Gowran, ","Kilkenny","Activity,Experience,Activity Operator,Tour"
"Teach an Tae Aran Café & Tea Rooms","https://www.cafearan.ie/","003539975092","53.06546109999999","-9.5252873","Inisheer, Aran Islands, ","Galway","Activity,Food and Drink,Experience,Cafe,Food Shops ,Shopping"
"A Heritage Walk of Old Galway",,"00353863480958","53.2721788149031","-9.04947254971209","Mr Liam Silke, Galway City Centre, ","Galway","Activity,Experience,Walking ,Walking,Activity Operator,Tour"
"A Spasso A Dublino - Italian Tour in Dublin","https://www.aspassoperdublino.com/","00353899644861","53.34224002305713","-6.251647725944508","15 Bawnville Close, , ","Dublin","Activity,Walking ,Walking,Activity Operator,Tour"
"A Touch of Ireland","https://atouchofireland.ie/","0035316680888","53.336932","-6.236283","Garden Level 39, Waterloo Road, Ballsbridge, ","Dublin","Activity,Activity Operator,Tour"
"Aasleagh Falls",,"","53.61960449999999","-9.6705825","River, Letterass, Erriff, , ","Mayo","Activity,Experience,Fishing,Angling,Nature and Wildlife"
"Abbey Ireland & UK","https://www.abbey.ie/","0035316486100","53.34460968243019","-6.276829060188334","City Gate, 22 Bridge Street Lower, Dublin City, ","Dublin","Activity,Experience,Activity Operator,Tour"
"Abbey Par 3 Golf Club","http://abbeypar3.com/","00353866084257","52.2321168","-6.863133599999999","Winningtown, Fethard, ","Wexford","Golf Course,Activity,Experience,Golf,Cafe,Food and Drink,Activity Operator,Food Shops ,Shopping"
"Abbey Theatre","https://www.abbeytheatre.ie/","0035318787222","53.3483986","-6.257178199999999","26/27 Abbey Street Lower, North City, Dublin, D01 K0F1","Dublin","Activity"
"Abbey Theatre Tours","https://www.abbeytheatre.ie/your-visit/tours-experiences/","0035318787222","53.3483986","-6.257178199999999","26/27 Abbey Street Lower, North City, Dublin, D01 K0F1","Dublin","Activity,Activity Operator,Tour"
"Abbeyderg Abbey and Graveyard","https://www.longford.ie/en/visit/explore-the-past/abbeyderg-abbey/abbeyderg-abbey.html","00353433346566","53.6382337","-7.787188899999999","Curraghmore, , ","Longford","Activity,Experience,Attraction,Historic Houses and Castle,Church Abbey,Monastery,Churches, Abbeys and Monastery,Ruins"
"Abbeyfeale Farmers Market","https://www.iomst.ie/market/abbeyfeale-farmers-market/","00353876866450","52.384547","-9.301963","The Square, Abbeyfeale, ","Limerick","Activity,Food and Drink,Experience,Restaurant,Shopping,Shopping Centres and Department Store,Food Shops "
"Abbeyleix Chauffeur Services","https://abbeyleixchauffeurservices.ie/chauffeur-tours-of-ireland/","00353831034327","52.9299434","-7.372373100000001","Boutari House, Ballytarsna, Abbeyleix, ","Laois","Activity,Experience,Transport,Activity Operator,Tour,Coach,Road"
"Abbeyleix Golf Club","https://abbeyleixgolfclub.ie/","00353578731450","52.92176300000001","-7.3372447","Rathmoyle Lodge, Ballyroan Rd, Rathmoyle, Abbeyleix, ","Laois","Golf Course,Activity,Experience,Golf,Activity Operator"
"Abbeyleix Heritage House","https://www.abbeyleixheritage.com/","00353578731653","52.9172919","-7.346411400000001","Heritage House, Rathmoyle, Abbeyleix, ","Laois","Activity,Experience,Tracing Your Ancestors,Attraction,Historic Houses and Castle,Museums and Attraction,Tour"
"Abbeyshrule Monastery","https://www.facebook.com/AbbeyshruleAbbey","00353433342577","53.57969142738988","-7.658347078712495","Drumanure, Abbeyshrule, ","Longford","Activity,Experience,Attraction,Historic Houses and Castle,Church Abbey,Monastery,Churches, Abbeys and Monastery,Ruins"
"About Ireland Taxi Tours","https://www.aboutirelandtaxitours.ie/","00353862352223","51.89841533167159","-8.474005710352685",", Cork City, ","Cork","Activity,Experience,Activity Operator,Tour"
"Cork Tours by About Ireland Taxi Tours","https://www.aboutirelandtaxitours.ie/tours/cork-tours/","00353862352223","51.8985143","-8.4756035",", , ","Cork","Activity,Experience,Activity Operator,Tour"
"Limerick Tours by About Ireland Taxi Tours","https://www.aboutirelandtaxitours.ie/tour/limerick-tours/","00353862352223","52.6638367","-8.6267343",", , ","Limerick","Activity,Experience,Activity Operator,Tour"
"Waterford Tours by About Ireland Taxi Tours","https://www.aboutirelandtaxitours.ie/tour/waterford-tours/","00353862352223","52.2429391","-7.1083647",", Waterford City, ","Waterford","Activity,Experience,Activity Operator,Tour"
"Kerry Tours by About Ireland Taxi Tours","https://www.aboutirelandtaxitours.ie/tour/kerry-tours/","00353862352223","52.15446069999999","-9.5668632","Kerry, , ","Kerry","Activity,Experience,Activity Operator,Tour"
"Kilkenny Tours by About Ireland Taxi Tours","https://www.aboutirelandtaxitours.ie/tour/kilkenny-tours/","00353862352223","52.6541454","-7.2447879",", , ","Kilkenny","Activity,Experience,Activity Operator,Tour"
"Dublin Tours by About Ireland Taxi Tours","https://www.aboutirelandtaxitours.ie/tours/dublin-tours/","00353862352223","53.3498053","-6.2603097",", , ","Dublin","Activity,Experience,Activity Operator,Tour"
"Galway Tours by About Ireland Taxi Tours","https://www.aboutirelandtaxitours.ie/tours/galway-tours/","00353862352223","53.27056400000001","-9.0566819",", Galway City, ","Galway","Activity,Experience,Activity Operator,Tour"
"Acapulco Mexican Restaurant","https://www.acapulco.ie/","0035316771085","53.343616","-6.264233299999999","7 South Great George's Street, Dublin, D02 EV81","Dublin","Activity,Food and Drink,Restaurant"
"ACET - Cork Language Centre International","https://www.acetireland.ie","00353214551661","51.9022032","-8.4692546","Wellington House, 16 St Patrick's Pl, Wellington Rd, , T23 AK82","Cork","Activity,Experience,Learning"
"Achill Archaeological Field School - Scoil Seandálúil Acla","https://achill-fieldschool.com/","00353861755838","53.9747652","-10.1285782","Achill Folklife Centre, Dooagh, Achill Island, , F28 HK11","Mayo","Activity,Experience,Learning,Activity Operator"
"Achill Bikes - Bike Rental","https://www.achillbikes.com/","00353872437686","53.9740896","-10.1327073","R319, Co. Mayo, Ireland, Keel West, Dooagh, , F28 R2P7","Mayo","Activity,Experience,Cycling,Activity Operator,Bike Rental"
"Achill Cliff House Restaurant","https://www.achillcliff.com/en/restaurant/about-restaurant","003539843400","53.976098","-10.0810517","Keel, Keel East, Achill Island, , ","Mayo","Activity,Food and Drink,Experience,Restaurant"
"Achill Experience Aquarium & Visitor Centre","https://achillexperience.ie/","003539843292","53.98398299999999","-10.080603","Crumpaun, Keel East, Achill, , F28 TX49","Mayo","Activity,Experience,Attraction,Zoos and Aquarium,Museums and Attraction,Nature and Wildlife,Food Shops ,Shopping"
"Achill Golf Club","https://achillgolf.com/","003539843456","53.97578","-10.0676021","The Sandy Banks Keel Achill Island, Keel East, Westport, F28 CX62","Mayo","Golf Course,Activity,Experience,Golf,Activity Operator"
"Achill Heritage Centre","https://achillheritagecentre.wordpress.com/","00353863406396","53.97036749999999","-9.979417299999998","Bunacurry, , F28 V4K7","Mayo","Activity,Experience,Learning,Tracing Your Ancestors,Attraction,Museums and Attraction"
"Achill Island (Acaill)","https://achilltourism.com/","003539820400","53.9517526424668","-9.99389294297557","Achill Tourism, Davitt Quater, Achill Sound, , ","Mayo","Activity,Experience,Craft,Shopping,Bird Watching,Nature and Wildlife,Climbing,Activity Operator,Cycling,Fishing,Angling,Golf,Horse Riding,Equestrian,Kayaking,Kitesurfing,Windsurfing,Surfing,Swimming,Swimming Pools and Water Park,Venue,Walking ,Walking,Island,Attraction,Offshore Island"
"Achill Island Distillery","https://irishamericanwhiskeys.com/","003539847898","53.97062769999999","-9.9827429","Unit 2 udaras na gaeltachta Bunnacurry Achill Island, Bunacurry, Westport, F28 AY75","Mayo","Activity,Experience,Food and Drink,Restaurant,Learning,Attraction,Museums and Attraction,Tour"
"Achill Island Heritage Tours","https://www.achillcoaches.com/","00353858505025","53.97327317397073","-10.136807550076355","Dooagh, Achill Island, , ","Mayo","Activity,Experience,Activity Operator,Tour"
"Achill Island Sea Salt","https://achillislandseasalt.ie/","003539847856","53.9780747","-9.9825784","Bunacurry, Achill, , F28 HT29","Mayo","Activity,Experience,Craft,Shopping,Artisan,Food and Drink,Restaurant,Food Shops ,Tour"
"Achill Island Tours","https://www.achillislandtours.ie/","00353838772715","53.2749746","-9.0456481","Fairgreen Rd, , H91 CX90","Galway","Activity,Experience,Activity Operator,Tour"
"Achill Isle Walks","https://www.achillislewalks.ie/","00353868439683","53.97251999999999","-10.091673","Keel East, Keel, Newtown, ","Mayo","Activity,Experience,Walking ,Walking,Activity Operator,Nature and Wildlife,Tour"
"Achill Outdoor Education & Training Centre","https://achilloutdoor.ie/","003539847253","53.95762430000001","-9.968569200000001","Achill, Cashel, ","Mayo","Activity,Experience,Climbing,Activity Operator,Kayaking,Kitesurfing,Windsurfing,Learning,Sailing,Surfing,Walking ,Walking,Adventure Park"
"Achill Sea Safari","https://www.achill-sea-safari.com/","00353896037322","53.9642395","-10.1027544","Achill island, Achill, westport, , ","Mayo","Activity,Experience,Activity Operator,Nature and Wildlife,Boat,Tour"
"Achill Seascape","https://www.achillseascape.ie/","00353877723077","53.88000109999999","-9.947166499999998","Small pier, Cloghmore, Achill, , ","Mayo","Activity,Experience,Activity Operator,Nature and Wildlife,Boat,Tour"
"Achill Seaweed Baths","https://www.facebook.com/AchillSeaweedBaths","00353877171713","53.9776589","-10.0451336","Dookinelly (Calvy), , ","Mayo","Activity,Experience,Pampering,Health Farm,Spa and Wellness,Specialised Retreat,Spa"
"Achill Surf Education & Adventure Centre","https://achillsurf.com/","00353851554376","53.973296","-10.073069","Achill Island Co Mayo *, Keel East, , ","Mayo","Activity,Experience,Climbing,Activity Operator,Cycling,Kayaking,Surfing,Walking ,Walking"
"Achonry Farmers Market","https://www.achonryfarmersmarket.ie/","00353877981827","54.09569119999999","-8.6602689","38WQ+7V, Carrowclare, Achonry, , ","Sligo","Activity,Experience,Craft,Shopping,Food and Drink,Restaurant,Shopping Centres and Department Store,Artisan,Local Produce,Food Shops "
"Acorn Restaurant at the Castle Oaks House Hotel & Estate","https://www.castleoaks.ie/acorn-restaurant/","0035361377666","52.7095835","-8.5085681","Stradbally North, Castleconnell, V94 EH94","Limerick","Activity,Food and Drink,Experience,Restaurant"
"Activate Waterford","https://activatewaterford.ie/","0035351325097","52.24238099999999","-7.089560899999999","Williamstown House, Williamstown Rd, Ardkeen, ","Waterford","Activity,Experience,Climbing,Activity Operator,Movies,Cinema,Venue,Cafe,Food and Drink"
"Active Breaks","https://www.activebreaks.ie/bikerental","00353871844530","52.27229680000001","-6.3856314","Active Breaks, Station Road, Doogans Warren, Rosslare, ","Wexford","Activity,Experience,Cycling,Activity Operator,Bike Rental,Tour"
"Active Tribe Courtown","https://www.activetribe.ie/","00353539425354","52.6486064","-6.228840299999999","Active Tribe Courtown, Courtown Harbour, Ballinatray Lower, Gorey, ","Wexford","Activity,Experience,Learning,Swimming,Swimming Pools and Water Park,Venue,Zip Lining,Activity Operator,Fitness and Leisure,Swimming Pool,Cafe,Food and Drink"
"Activities Ireland","https://activitiesireland.ie/","0035315056794","53.3583925","-6.449117799999999","11 Main St, Lucan Village, Lucan, ","Dublin","Activity,Experience,Activity Operator,Venue,Sports Venues,Tour"
"Activity Days","https://www.facebook.com/activitydaysireland","00353873306306","51.9395051","-8.5674229","10 Bracken Wood, Blarney, ","Cork","Activity,Cycling,Food and Drink,Restaurant,Kayaking,Activity Operator,Sailing,Walking ,Walking,Nature and Wildlife,Tour"
"Adam Ladd Tours","https://www.adamladdtours.com/","00353851572537","53.3403825","-6.300785799999999","Bellavista, 46 Cameron Square, Kilmainham, D08 W83F","Dublin","Activity,Activity Operator,Tour"
"Adams & Butler","https://www.adamsandbutler.com/destinations/ireland/","0035312889355","53.2692808","-6.1667652","Aspen Court, 2 Bray Rd, Cornelscourt, , D18 K3T2","Dublin","Activity,Experience,Activity Operator,Nature and Wildlife,Tour"
"Adare Cottage","https://adarecottage.ie/","0035361396422","52.56482639999999","-8.7867137","Adare Cottage Shop, Main Street, Adare, ","Limerick","Activity,Experience,Craft,Shopping,Shopping Centres and Department Store,Food Shops "
"The Golf Course at Adare Manor","https://www.adaremanor.com/golf/","0035361605200","52.5710227","-8.7827067","Limerick Road, Adare, ","Limerick","Golf Course,Activity,Experience,Golf,Driving Range,General,Golf Driving Range,Food and Drink,Restaurant,Activity Operator,Food Shops ,Shopping"
"Adare Heritage Centre","https://www.adareheritagecentre.ie/","0035361396666","52.5647887","-8.789831300000001","Main St, Blackabbey, Adare, V94 DWV7","Limerick","Activity,Experience,Craft,Shopping,Shopping Centres and Department Store,Tracing Your Ancestors,Attraction,Museums and Attraction,Cafe,Food and Drink,Food Shops ,Tour"
"Adare Village & Riverbank Walk",,"","52.56208570551605","-8.793213826074293",", Adare, ","Limerick","Activity,Walking ,Walking"
"Adare Walking Tours","https://www.facebook.com/adarewalkingtours/","00353879623120","52.5647615","-8.7881817","N21, Blackabbey, Adare, ","Limerick","Activity,Experience,Activity Operator,Tour,Walking"
"Adare Walks","https://www.facebook.com/AdareWalks","00353868980278","52.5636339","-8.7925892",", Adare, ","Limerick","Activity,Activity Operator,Tour,Walking"
"Adare Woollens","https://adarewoollens.com/","0035361396922","52.5646866","-8.789861799999999","The Heritage Centre, Blackabbey, Adare, V94 DWV7","Limerick","Activity,Experience,Craft,Shopping,Shopping Centres and Department Store,Food Shops "
"Adelaide Memorial Church","http://www.myshalldrumphea.com/adelaide-church.htm","00353599157671","52.684946","-6.778635",", Myshall, ","Carlow","Activity,Experience,Church Abbey,Monastery,Attraction,Churches, Abbeys and Monastery"
"Adelaide Road Presbyterian Church","https://www.adelaideroadchurch.ie/","0035312694944","53.33250790000001","-6.2587834","Adelaide Road Presbyterian Church, 18A Adelaide Rd, Saint Kevin's, Dublin, D02 HP49","Dublin","Activity,Church Abbey,Monastery,Attraction,Churches, Abbeys and Monastery"
"Adonis Flower Designers","https://adonis.ie/classes/","0035314545973","53.34096520000001","-6.272102800000001","59- 60 Patrick St, Christchurch Pl, The Liberties, Dublin, ","Dublin","Activity,Craft,Shopping,Learning,Shopping Centres and Department Store,Food Shops "
"Adrigole Arts (Pure-Ireland)","https://www.pure-ireland.ie/","003532760234","51.6844045","-9.710122499999999","Drumlave, , P75 HF10","Cork","Activity,Food and Drink,Experience,Craft,Shopping,Shopping Centres and Department Store,Art Gallery,Attraction,Venue,Music,Cafe,Food Shops "
"Killarney Lakes and Gap of Dunloe Tour by Adventure 001 Helicopters Ireland","https://www.adventure001.ie/ActivityDetail/Aviation/Helicopter-Rides/43/Killarney-Lakes-and-Gap-of-Dunloe/AHI754","0035351550200","52.3458108","-9.7623808","Ardfert Airfield, Ballyrobert, Ardfert, ","Kerry","Activity,Experience,Activity Operator,Day Tour,Tour"
"10km Helicopter Buzz Flight by Adventure 001 Helicopters Ireland","https://www.adventure001.ie/ActivityDetail/Aviation/Helicopter-Rides/43/10-km-Helicopter-Buzz-Flight/AH10K","0035351550200","52.18742699999999","-7.079176999999998","Killowen, , X91 AR26","Waterford","Activity,Experience,Activity Operator,Day Tour,Tour"
"Clew Bay, Westport and Croagh Patrick Tour by Adventure 001 Helicopters Ireland","https://www.adventure001.ie/ActivityDetail/Aviation/Helicopter-Rides/43/Clew-Bay%2c-Westport-and-Croagh-Patrick-Tour/AHI755","0035351550200","53.6382888","-9.244663599999999","Ballinrobe Race Course, Rathcarreen, Ballinrobe, ","Mayo","Activity,Experience,Activity Operator,Day Tour,Tour"
"Fortress Spike Island Tour by Adventure 001 Helicopters Ireland","https://www.adventure001.ie/ActivityDetail/Aviation/Helicopter-Rides/43/Fortress-Spike-Island-Helicopter-Tour/AHI95K","0035351550200","52.132177","-8.685995","Cork Racecourse Mallow, Killetra, Mallow, ","Cork","Activity,Experience,Activity Operator,Day Tour,Tour"
"The Copper Coast Tour by Adventure 001 Helicopters Ireland","https://www.adventure001.ie/ActivityDetail/Aviation/Helicopter-Rides/43/The-Copper-Coast-Helicopter-Tour/AHI751","0035351550200","52.18856","-7.080912","Waterford Airport, Ballygarran, Waterford Regional Airport, , ","Waterford","Activity,Experience,Activity Operator,Day Tour,Tour"
"Cliffs of Moher Tour by Adventure 001 Helicopters Ireland","https://www.adventure001.ie/ActivityDetail/Aviation/Helicopter-Rides/43/Cliffs-Of-Moher-Tour/AHI453","0035351550200","52.8462202","-9.4139509","Leagard South, Spanish Point, ","Clare","Activity,Experience,Activity Operator,Day Tour,Tour"
"Adventure 001 Helicopters Ireland","https://www.adventure001.ie/","0035351550200","52.18742699999999","-7.079176999999998","Killowen, , X91 AR26","Waterford","Activity,Experience,Day Tour,Tour"
"Adventure Gently","https://www.adventuregentlyireland.com/","00353857280520","54.2304964391538","-8.3012295257849","Beagh, Dromahair, ","Leitrim","Activity,Experience,Kayaking,Activity Operator,Nature and Wildlife,Boat,Tour"
"adventure.ie","https://www.adventure.ie/category/explore/","0035312542754","53.0119991","-6.107665799999999","Ashford Business Centre, Mount Usher Court, Ashford, A67 PN59","Wicklow","Activity,Experience,Climbing,Activity Operator,Walking ,Walking"
"Adventure Legend","https://adventurelegend.ie/","00353876654042","54.0138727","-7.5282313","Portaliff Or Townparks, Killashandra, , ","Cavan","Activity,Experience,Kayaking,Activity Operator,Learning,Surfing,Walking ,Walking,Day Tour,Tour"
"Adventure One Surf School","https://www.facebook.com/adventureonesurfschool/","00353876285565","55.247959","-7.701933999999999","Ballyheirnan Bay, Rinmore, Eelburn, Fanad, ","Donegal","Activity Experience Surfing Activity Operator"
"Adventure Rooms Dublin","https://adventurerooms.ie/","0035318727927","53.34966379999999","-6.270430499999999","Classic House, Green St, Rotunda, , ","Dublin","Activity"
"Adventure Sports Culdaff","https://adventuresummercamp.ie/","00353830161907","55.3003397","-7.154144800000001","pier, Bunagee Rd, Carthage, Bunagee, , ","Donegal","Activity,Experience,Climbing,Activity Operator,Kayaking,Walking ,Walking"
"Adventure Tours Inis Mor","https://www.facebook.com/AdventureToursInisMor","00353879547571","53.11914082815188","-9.66904792855837","Cuan Chiaran, Kilronan, Inis Mor, , ","Galway","Activity,Experience,Activity Operator,Tour"
"Aer Arann Islands","https://aerarannislands.ie/","0035391593034","53.232080708613005","-9.467315095118465","Caislean, Inverin, , ","Galway","Activity,Experience,Transport,Coach,Road"
"Aerfort Réigiúnach Chonamara (Connemara Regional Airport)",,"","53.2322156","-9.4695141","Connemara Airport, Inveran, ","Galway","Activity,Experience,Transport,Attraction,Embarkation Point,Coach,Road"
"Aghaboe Abbey",,"","52.92221660000001","-7.514009299999999","Friarsland, Aghaboe, ","Laois","Activity,Experience,Church Abbey,Monastery,Attraction,Churches, Abbeys and Monastery,Ruins,Historic Houses and Castle"
"The Spa at Aghadoe Heights","https://www.aghadoeheights.com/spa","00353646631766","52.07733390000001","-9.5562134","Lakes of Killarney, Nunstown, Killarney, V93 DH59","Kerry","Activity,Experience,Pampering,Health Farm,Spa and Wellness,Specialised Retreat,Spa"
"Agricultural Heritage Display Centre","https://www.coolakayhouse.ie/agricultural-heritage-museum","0035312862423","53.1667259","-6.188046300000001","Powerscourt Waterfall Road, Coolakay, Enniskerry, ","Wicklow","Activity,Experience,Agriculture,Nature and Wildlife,Attraction,Museums and Attraction"
"Ahakista Air India Plane Disaster Memorial","https://livingthesheepsheadway.com/air-india-disaster-memorial/","","51.59751","-9.621448","Sheeps Head Peninsula, Ahakista, ","Cork","Activity,Experience,Attraction,Public Sculpture"
"Ahascragh Distillery","https://ahascraghdistillery.com/","0035399688935","53.3970592","-8.3360383","Chapel St, Ahascragh West, Ballinasloe, H53 AH39","Galway","Activity,Experience,Learning,Activity Operator,Attraction,Museums and Attraction,Cafe,Food and Drink,Tour"
"Ahenny High Crosses","http://www.megalithicireland.com/High%20Cross%20Ahenny.htm","","52.41253745665957","-7.393333381617822","Carrick On Suir, Ahenny, ","Tipperary","Activity,Experience,Church Abbey,Monastery,Attraction,Churches, Abbeys and Monastery,Ruins,Historic Houses and Castle"
"Ahoy Café","https://www.facebook.com/ahoycafekillybegs","00353749731952","54.63338479999999","-8.4460411","Shore Road, Killybegs, F94 V322","Donegal","Activity,Food and Drink,Experience,Cafe,Seafood,Restaurant"
"Aidi MacDáibhi Celtic Jewellery","https://www.celticjewelry.ie/","00353834834176","52.447323","-9.482014999999999","Church Street Church St, Listowel, V31 Y659","Kerry","Activity,Experience,Craft,Shopping,Shopping Centres and Department Store,Food Shops "
"Aileach Restaurant at the Clanree Hotel","https://www.clanreehotel.com/CarveryCoffeeDock.html","00353749124369","54.94365939999999","-7.6983954","Derry Road, Bunnagee, Letterkenny, ","Donegal","Activity,Food and Drink,Experience,Restaurant"
"Aillwee Burren Experience: Cave Tours, Birds of Prey & Farm Shop","https://aillweeburrenexperience.ie/","00353657077036","53.09043310000001","-9.146812299999999","Aillwee Burren Experience, Ballycahill, Ballyvaughan, H91 AX26","Clare","Activity,Experience,Falconry,Nature and Wildlife,Activity Operator,Natural Landscape,Attraction,Food Shops ,Shopping,Tour"
"Áine Dunne - Fine Art Tapestry Weaver","https://ainedunneweaver.com/","00353879112502","53.76211399999999","-6.351276999999999","An Cruach, Ballymakenny, Drogheda, ","Louth","Activity,Experience,Craft,Shopping,Learning,Art Gallery,Attraction,Activity Operator"
"Aircoach","https://www.aircoach.ie/","0035318447118","53.428486","-6.243069","Arrivals Level, Dublin Airport, ","Dublin","Activity,Transport,Coach,Road"
"Airfield Estate","https://www.airfield.ie/","0035319696666","53.28817950000001","-6.236995299999999","Overend Ave, Dundrum, D14 EE77","Dublin","Activity Gardens Attraction Garden Visitor Farm Nature and Wildlife"
"Airmid Natural Handmade Skincare","https://airmidsoap.com/","00353892066292","52.9417237","-9.293415000000001","AIRMID, Church St, Deerpark Middle, Ennistimon, , V95 CR44","Clare","Activity,Experience,Craft,Shopping,Shopping Centres and Department Store,Food Shops "
"Airtastic Entertainment Centre","https://air-tastic.com/locations/cork","00353818882232","51.903236","-8.357882399999998","Unit 5, Eastgate Retail Park, Little Island, T45 DY80","Cork","Activity,Experience,Restaurant,Activity Operator,Food and Drink"
"Akelarre Tours","https://www.akelarretours.com/en","00353830351295","53.3498053","-6.2603097",", , ","Dublin","Activity,Activity Operator,Tour,Walking"
"Alaind Walking Sneem","https://alaindwalkingireland.ie","00353852581480","51.84421","-9.9086594","Álaind Lodges B&B, Sportsfield Road, Moularostig, Sneem, ","Kerry","Activity,Walking ,Walking,Activity Operator,Tour"
"Alainn Tours","https://www.vacancesenirlande.com/","00353719150345","54.276444346788004","-8.494411290535822","Unit 9, ProTek House, Finisklin Business Park, Sligo, , ","Sligo","Activity,Experience,Activity Operator,Tour"
"Alan Gaillard Stoneware Pottery","http://alangaillard.com/","003539522786","53.5036472","-10.0308748","The Stone House, Westport Rd, Letternoosh, Clifden, H71 VY45","Galway","Activity,Experience,Craft,Shopping,Shopping Centres and Department Store,Food Shops "
"Alchemy Tours","https://alchemytours.ie","00353862596887","54.14019560000001","-10.0836632","Mullaghroe, North, Clogher, F26 C2C8","Mayo","Activity,Experience,Walking ,Walking,Activity Operator,Nature and Wildlife,Tour"
"Alive Outside","https://aliveoutside.ie","0035312147355","53.1795604","-6.105066000000001","Garden House, Southern Cross Rd, Kilruddery Demesne West, Bray, A98 W9F2","Wicklow","Activity,Experience,Climbing,Activity Operator,Kayaking,Swimming,Swimming Pools and Water Park,Venue,Adventure Park"
"Alix Gardners Cookery School","https://www.dublincookery.com/","0035316681553","53.3296366","-6.245328100000001","71 Waterloo Rd, Ballsbridge, D04 P659","Dublin","Activity,Food and Drink,Restaurant,Learning,Activity Operator,Food Trails and Tour,Tour"
"All Ireland Chauffeur - Coach Tours","https://www.allirelandchauffeurtours.com","00353(0)876613619","52.23938187117054","-7.075492314680446","13 Shanagarry, Collins Ave, Waterford City, ","Waterford","Activity,Experience,Activity Operator,Tour"
"Allihies Copper Mine Museum","https://acmm.ie/theminemuseum/","003532773218","51.6412598","-10.0441558","Cloan, Beara, Allihies, ","Cork","Activity,Experience,Learning,Walking ,Walking,Attraction,Museums and Attraction,Cafe,Food and Drink"
"Allihies Copper Mine Tour","http://bearabaoitours.com","00353(0)876461627","51.63912118061872","-10.045510909174027","Cnocán, Beara, , ","Cork","Activity,Walking ,Walking,Activity Operator,Tour"
"Allo's Restaurant, Bar & Bistro","https://www.facebook.com/Allosbarbistro","003536822880","52.44659919999999","-9.4842248","41 Church St, Listowel, ","Kerry","Activity,Food and Drink,Experience,Restaurant"
"Aloha Surf School","https://surfschool.ie/","00353872133996","53.11747539999999","-9.2861007","Fanore More, Fanore, ","Clare","Activity,Surfing,Activity Operator"
"Alpaca Lodge ","https://www.facebook.com/Alpacaslodge/","00353879825800","52.54153300000001","-6.3574919","Wells, Gorey, Y25 R9K6","Wexford","Activity,Experience,Activity Operator,Tour,Walking"
"Alpaca Walk West Cork","https://awwc.ie/","00353830670776","51.5362985","-9.126397899999999","Alpaca Walk West Cork, Ardra, Unionhall, , ","Cork","Activity,Experience,Activity Operator,Tour"
"Alpine Fishery",,"003539636733","54.2159","-9.09244","Pier Road, Inniscrone, , ","Sligo","Activity,Experience,Fishing,Angling,Activity Operator"
"Altamont Gardens","https://heritageireland.ie/visit/places-to-visit/altamont-gardens/","00353599159444","52.7357813084342","-6.720837390212978",", Tullow, ","Carlow","Activity Experience Gardens Attraction Garden"
"Alternative Bread Company","https://www.instagram.com/alternativebreadcompany/","00353214251347","51.89765060000001","-8.474743499999999","24 Grand Parade, Centre, , T12 KP44","Cork","Activity,Experience,Shopping,Shopping Centres and Department Store,Food Shops "
"Alternative Dublin City","https://www.alternativedublincity.com/","00353863334177","53.3460087","-6.262605","51 Wellington Quay, Temple Bar, Dublin City, ","Dublin","Activity,Day Tour,Tour"
"Alternative Visions","https://alternativevisions.co.uk/","00353872825851","55.1834711","-7.969436900000002",", Dunfanaghy, ","Donegal","Activity,Experience,Learning,Photography,Activity Operator,Tour"
"Althea Valentia","https://islandorganix.ie/","00353871700045","51.9122585","-10.3563488",", Valentia Island, v23tc78","Kerry","Activity,Experience,Learning,Activity Operator,Food Shops ,Shopping"
"Altidore Castle","https://www.ihh.ie/index.cfm/houses/house/name/Altidore%20Castle","00353877601369","53.1106151","-6.138117299999999","Altidore Castle, Altidore Demesne, Kilpedder, , ","Wicklow","Activity,Experience,Attraction,Historic Houses and Castle,Castle,Museums and Attraction,Tour"
"Altitude - The Bicycle People","https://www.altitude.ie/","0035351870356","52.2602341","-7.1187809","22 Ballybricken, , X91 V6VA","Waterford","Activity,Experience,Cycling,Shopping,Shopping Centres and Department Store,Bike Rental,Food Shops "
"Amazing Irish Vacations","https://www.amazingirishvacations.com/day-tours","0035361484911","52.66310138557455","-8.627269450783388",", Limerick City, ","Limerick","Activity,Experience,Activity Operator,Tour"
"Amelia's Irish Design & Gifts","https://www.amelias.ie/","00353872434060","54.9504925","-7.736841999999999","29 Upper Main St, Letterkenny, ","Donegal","Activity,Experience,Craft,Shopping,Food Shops "
"Amicus Restaurant","https://amicusrestaurant.ie/","00353214276455","51.89928299999999","-8.4741568","Paul St, Centre, , T12 WP97","Cork","Activity,Food and Drink,Experience,Restaurant"
"AMOC Jewellery","https://amoc.ie/","0035312871515","53.1443074","-6.0625099","1 Church Rd, Killincarrig, Greystones, ","Wicklow","Activity,Experience,Craft,Shopping,Shopping Centres and Department Store,Food Shops "
"An Bhinn Bhuí (Benwee Head)",,"","54.33666669999999","-9.818888900000001","Benwee Head, Carrownaglogh, , ","Mayo","Activity"
"Ceardlann Spiddal Craft Village and Café","https://www.spiddalcrafts.com/","0035391553376","53.2447242","-9.3004546","craft village & cafe, Bohoona East, Spiddal, H91 XPA8","Galway","Activity,Experience,Craft,Shopping,Shopping Centres and Department Store,Cafe,Food and Drink,Food Shops "
"An Chéibh Bheag (Cloghmore Pier)",,"","53.880075","-9.9472967","Cloghmore, Achill Island, , ","Mayo","Activity,Experience,Fishing,Angling,Attraction,Embarkation Point,Nature and Wildlife,Boat,Tour"
"An Chonair (Conor Pass)",,"","52.1818742","-10.2072805","R560, Ballingarraun, , ","Kerry","Activity,Experience,Natural Landscape,Attraction,Nature and Wildlife"
"An Evening of Irish Folklore and Fairies","https://irishfolktours.com/","00353868265312","53.3438235","-6.263658800000001","1 Dame Ct, , D02 TW84","Dublin","Activity,Food and Drink,Pubs and Bar"
"An Fál Mór (Falmore)",,"","54.09554","-10.085653","Falmore, Belmullet (Béal an Mhuirthead), , ","Mayo","Activity,Experience,Learning,Ruins,Attraction,Historic Houses and Castle"
"An File","https://www.facebook.com/anfilebarwestport/","003539844949","53.7995252","-9.524646899999997","1 The, Octagon, Cahernamart, Westport, ","Mayo","Activity,Food and Drink,Experience,Restaurant,Pubs and Bar"
"An Fód Dubh (Blacksod Harbour)",,"","54.1006423","-10.0688502","Fallmore, Blacksod, ","Mayo","Activity,Experience,Attraction,Embarkation Point"
"An Gobha Iron Works & Experience","https://www.discoverboynevalley.ie/plan-your-visit/things-to-do/gobha-blacksmith-boyne-valley","00353868652679","53.6604554","-6.784871099999999","Durhamstown, Charlesfort, , ","Meath","Activity,Experience,Activity Operator"
"An Grianán","https://www.an-grianan.ie/","00353419822119","53.7546463","-6.264444800000001","An Grianan ICA, Newtown, A92 X9TF","Louth","Activity,Experience,Restaurant,Craft,Shopping,Cooking,Cookery,Learning,Activity Operator,Attraction,Historic Houses and Castle,Fine Dining,Food and Drink"
"An Grianán Theatre","https://www.angrianan.com/","00353749120777","54.9531517","-7.731236899999999","Port Rd, Gortlee, Letterkenny, F92 RV1F","Donegal","Activity,Experience,Venue,Comedy,Music,Food and Drink,Pubs and Bar,Cafe"
"An Poitin Stil","https://anpoitinstil.ie/","0035314589244","53.281066","-6.476837","Naas Dual Carriageway, Rathcoole, ","Dublin","Activity,Food and Drink,Restaurant,Pubs and Bar"
"An Port Mór Restaurant","https://anportmor.com/","003539826730","53.799036","-9.522252","1 Brewery Place, (Adjacent to Bridge Street), Westport, F28 KP70","Mayo","Activity,Food and Drink,Experience,Restaurant"
"An Púcán","https://anpucan.ie/","0035391376561","53.2745129","-9.0474341","11 Forster St, , H91 P65D","Galway","Activity,Food and Drink,Experience,Restaurant,Pubs and Bar"
"Madigan’s Bar & Restaurant at Aran Islands Hotel","https://aranislandshotel.com/madigans-the-hotel-aran-islands-hotel-inis-mor/","003539961104","53.1180074","-9.675871599999999","Kilronan, Aran Islands, H91 DH27","Galway","Activity,Food and Drink,Experience,Restaurant,Pubs and Bar,Seafood,Vegetarian"
"An Sibin Equestrian Centre","https://www.irishhorseriding.com/","0035361927411","52.98022899999999","-8.4042105","Derroran East, , V94 T6N1","Clare","Activity,Experience,Horse Riding,Equestrian,Nature and Wildlife"
"An Síbín Restaurant & Wine Bar","https://ansibinkenmare.com/","003536830831","51.7656799","-9.7708152","An Sibin Restaurant B&B, Lauragh Lower, Kenmare, V93 T4C2","Kerry","Activity,Food and Drink,Experience,Restaurant,Local Produce,Pubs and Bar,Seafood"
"An Siopa at The Mills","https://www.millsinn.ie/craft-shop-cork-hampers-food-homebaking-gifts","003532645237","51.94565739999999","-9.170632200000002","Flats, Ballyvourney, ","Cork","Activity,Experience,Shopping,Shopping Centres and Department Store,Food Shops "
"An Spailpín Fánach","https://www.facebook.com/anspailpinfanac","00353868062724","51.8966158","-8.4765789","Centre, Cork City, T12 DYX9","Cork","Activity,Food and Drink,Experience,Pubs and Bar"
"An Súgán Restaurant & Seafood Bar","https://www.ansugan.com/restaurant","00353238833719","51.6231669","-8.8858526","41-42 Wolfe Tone St, Scartagh, Clonakilty, P85 DY95","Cork","Activity,Food and Drink,Experience,Pubs and Bar,Seafood,Restaurant"
"An Táin Arts Centre","https://www.antain.ie/","00353429332332","54.0045404","-6.400590399999998","Crowe St, Townparks, Dundalk, ","Louth","Activity Experience Learning Art Gallery Attraction Venue Comedy Traditionally Irish"
"An tSean Bheairic","https://www.facebook.com/antseanbheairic/","00353749180655","55.1368631","-8.101692899999998",", Falcarragh, ","Donegal","Activity,Experience,Craft,Shopping,Attraction,Museums and Attraction,Cafe,Food and Drink,Food Shops "
"Anam Cara Writer's and Artist's Retreat","https://www.anamcararetreat.com","003532774441","51.6842538","-9.9557065","R575, Inches, Eyeries, ","Cork","Activity,Experience,Learning,Activity Operator"
"Anam Croí Ireland Tours","https://anamcroitours.com/","00353860351816","53.3498053","-6.2603097",", , ","Dublin","Activity,Activity Operator,Tour"
"Anam Tours","https://anamtours.ie/","00353863873964","54.0387808","-6.1873358","Cooley Peninsula, Trinity Cl, Liberties Of Carlingford, Carlingford, A91 K803","Louth","Activity,Experience,Walking ,Walking,Activity Operator,Tour"
"Ancestral Line","https://ancestralline.com/","00353860878762","52.729145","-9.1057419","Lavally North, , V95 YK5F","Clare","Activity,Experience,Activity Operator,Tracing Your Ancestors"
"Anchor Bar Dungarvan","https://www.facebook.com/anchorbardungarvan","003535841249","52.08982220000001","-7.618661100000002","Davitts Quay, Abbeyside, Dungarvan, X35 D880","Waterford","Activity,Food and Drink,Experience,Pubs and Bar"
"Anchor Tours","https://anchortours.ie/","00353429371405","54.011726892555195","-6.346887929770901","Bellurgan, , ","Louth","Activity,Experience,Transport,Activity Operator,Coach,Road"
"Ancient Spiritual Tours","https://ancientspiritualtours.com/tour/","00353831813948","52.4369676","-8.284439599999999","Kilross, , ","Tipperary","Activity,Experience,Activity Operator,Tour"
"Andaire Tours & Experiences","https://andaire.com/","00353876265974","53.16326859999999","-8.9355011","Tarrea, , ","Galway","Activity,Experience,Activity Operator,Nature and Wildlife,Tour"
"AndChips","https://www.andchips.ie/","003535824498","52.0894914","-7.617461899999999","Unit 3, Castle House, Davitts Quay, Abbeyside, Dungarvan, X35 DP60","Waterford","Activity,Food and Drink,Experience,Artisan,Restaurant,Fast Food,Local Produce,Seafood,Vegetarian"
"Andean Alpacas","https://andeanalpacas.ie/","00353872234743","53.5484141","-7.326902","Culleen Beg, Cullionbeg, , ","Westmeath","Activity,Experience,Activity Operator,Nature and Wildlife,Tour,Walking"
"Andy's Bar & Restaurant","https://www.andysrestaurant.ie/","003534782277","54.2477282","-6.972137499999999","12 Market St, Mullaghmonaghan, , H18 N772","Monaghan","Activity,Food and Drink,Experience,Restaurant,Pubs and Bar"
"Irish Dance at the Thatched Cottage","https://www.anetadortovadance.com/","","53.2664328","-9.0574731","Fairhill Rd Upper, The Claddagh, , H91 AY80","Galway","Activity,Experience,Learning,Activity Operator,Traditionally Irish"
"Anglers Paradise Fishing Guides Killarney","https://anglersparadise.net/index.html","00353871229352","52.17198689999999","-9.550507800000002",", Farranfore, ","Kerry","Activity,Experience,Fishing,Angling,Activity Operator,Nature and Wildlife"
"Anglers Rest","https://theanglersrest.ie/","0035318208351","53.359055","-6.3586481","20 Knockmaroon Hill, Castleknock, D20 AH96","Dublin","Activity,Food and Drink,Restaurant,Pubs and Bar"
"Anglers Rest Bar","https://www.facebook.com/profile.php?id=100063647618323","003539543628","53.5889263","-9.964404799999999","Tully Cross, Renvyle, ","Galway","Activity,Food and Drink,Experience,Pubs and Bar"
"Angling Bleach Lough","https://bleachloughanglers.ie/","","52.6168495261355","-8.81276636800171","Mount Pleasant, Kildimo, ","Limerick","Activity,Experience,Fishing,Angling,Activity Operator,Boat,Tour"
"Angling Services Ireland","https://www.facebook.com/anglingservicesireland/?fref=ts","00353866011878","53.98351589999999","-8.286815299999997","3 Canal View, Deerpark, Boyle, F52 K253","Roscommon","Activity,Experience,Fishing,Angling,Activity Operator,Nature and Wildlife,Boat,Tour"
"Animal Magic – Falconry and Conservation","https://animalmagic.ie/","00353876243546","52.4035951","-8.5708568","Deebert, , V35 V212","Limerick","Activity,Experience,Falconry,Nature and Wildlife,Learning,Activity Operator"
"Ann McDonald’s Upper Deck Café","https://www.annmcdonaldscafe.com/","0035351425391","52.3954791","-6.943542000000001","8 Mary St, New Ross, Y34 TD40","Wexford","Activity,Food and Drink,Experience,Restaurant,Cafe"
"Annagh Church",,"00353667122522","52.248165","-9.742521",", Blennerville, ","Kerry","Activity,Experience,Church Abbey,Monastery,Attraction,Churches, Abbeys and Monastery,Ruins,Historic Houses and Castle"
"Annaharvey Farm Equestrian Centre","https://www.annaharveyfarm.ie/facilities","00353579343544","53.2517356","-7.397278699999998","Annagharvey, , ","Offaly","Activity,Experience,Horse Riding,Equestrian,Cafe,Food and Drink,Nature and Wildlife,Activity Operator"
"Annalee Restaurant at The Hotel Kilmore","https://www.hotelkilmore.ie/annalee-restaurant.html","00353494332288","53.98657129999999","-7.322304300000001","Dublin Rd, Killygarry, , H12 F6Y7","Cavan","Activity,Food and Drink,Experience,Restaurant"
"Green Sketching with Anne Harrington Rees","https://anneharringtonreesdesigns.ie/","","51.6203379","-8.905510399999999",", Clonakilty, ","Cork","Activity,Experience,Craft,Shopping,Learning,Activity Operator"
"Annemarie Bourke Studio Gallery","https://www.annemariebourke.com/","0035361410510","52.6613859","-8.6296155","98 O'Connell St, Prior's-Land, , V94 WK3R","Limerick","Activity,Experience,Craft,Shopping,Learning,Art Gallery,Attraction"
"Annestown Beach ",,"0035351875823","52.1391984","-7.272799699999999",", , ",,"Activity,Experience,Surfing,Activity Operator,Swimming,Swimming Pools and Water Park,Venue,Walking ,Walking,Attraction,Beach,Natural Landscape,Nature and Wildlife"
"Anthony's Restaurant at the Doolin Inn Country House","https://www.doolininn.ie/our-food/","00353657074421","53.0125626","-9.383937200000002","1a Fisher St, Ballyvara, Doolin, V95 CC79","Clare","Activity,Food and Drink,Experience,Restaurant,Seafood"
"Spa at the Kinsale Hotel & Spa","https://www.kinsalehotelandspa.ie/spa.html","00353214706625","51.6984062","-8.465741099999999",", Rathmore, P17 F542","Cork","Activity,Experience,Pampering,Health Farm,Spa and Wellness,Specialised Retreat,Spa"
"Apples & Atoms Sculpture, Trinity College","https://www.tcd.ie/artcollections/engage/art-on-campus/eilisoconnell/index.php","","53.3436141","-6.252378900000001","Trinity College Dublin, , ","Dublin","Activity,Attraction,Public Sculpture"
"Applied Language Centre, University College Dublin","http://www.ucd.ie/alc","0035317167900","53.306327","-6.220299","Daedalus Building, Belfield, ","Dublin","Activity,Learning"
"Aqua Golf","https://aquadome.ie/aqua-golf-2/","00353667128899","52.263495","-9.709561","Aqua Dome, Tralee, ","Kerry","Activity,Experience,Golf,Swimming Pool,Swimming Pools and Water Park,Venue,Cafe,Food and Drink,Activity Operator"
"Aqua Restaurant","https://aqua.ie/","0035318320690","53.392225","-6.069472200000001","1 W Pier, Howth, ","Dublin","Activity,Food and Drink,Restaurant"
"Aquaventures","https://aquaventures.ie/","003532820511","51.4847541","-9.3687118","Lifeboat Road, Baltimore, ","Cork","Activity,Experience,Activity Operator,Nature and Wildlife,Day Tour,Tour,Boat"
"Árainn Mhór (Arranmore Island)",,"","54.9874345","-8.5350585","Arranmore, , ","Donegal","Activity,Experience,Fishing,Angling,Walking ,Walking,Island,Attraction,Offshore Island"
"Aran Bike Hire","https://aranislandsbikehire.com/","003539961132","53.11934230000001","-9.665490100000001","Cottage Rd, Killeany, Kilronan, , ","Galway","Activity,Experience,Cycling,Activity Operator,Nature and Wildlife,Bike Rental"
"Aran Celtic Bus Tours Inishmore","https://www.facebook.com/Arantours","00353877004473","53.1191313","-9.668997999999998","Inishmore, Aran Islands, ","Galway","Activity,Experience,Tour"
"Aran Island Ferries","https://www.aranislandferries.com","0035391568903","53.2742051404657","-9.04757590588185","Aran Island Ferries, Rossaveal, ","Galway","Activity,Experience,Transport,Activity Operator,Coach,Road"
"Aran Islands - Inisheer  - Inis Oírr","http://www.discoverinisoirr.com","003539975008","53.0594423","-9.5281381","Inisheer, , ","Galway","Activity,Experience,Cycling,Swimming,Swimming Pools and Water Park,Venue,Walking ,Walking,Attraction,Beach,Island,Offshore Island,Natural Landscape,Ruins,Historic Houses and Castle,Nature and Wildlife"
"Aran Islands Tour - Railtours Ireland First Class!","https://railtoursireland.com/train-tour/the-aran-islands/dh11","0035318560045","53.351003","-6.250291","16 Amiens Street, , ","Dublin","Activity,Activity Operator,Tour"
"Aran Off Road Experience","https://www.aranoffroadexperience.ie/","00353830185175","53.13111","-9.7252","Oghil, Oatquarter, , ","Galway","Activity,Experience,Transport,Learning,Walking ,Walking,Activity Operator,Attraction,Historic Houses and Castle,Natural Landscape,Day Tour,Tour,Coach,Road"
"Aran Pony & Trap","https://www.aranponytrap.com/","003539961292","53.1191919","-9.6701839","Kilronan, Killeany, Aran Islands, ","Galway","Activity,Experience,Activity Operator,Tour"
"Aran Sea Tours and Fishing","https://www.aranseatours.ie/","00353873579313","53.1178394","-9.6670845","Kilronan Harbour Kilronan Inishmore, Aran Islands, ","Galway","Activity,Experience,Activity Operator,Nature and Wildlife,Boat,Tour"
"Aran Sweater Market - Inis Mór","https://www.aran.com/","00353646623102","53.11908","-9.669353000000001","The Aran Islands, Killeany, Lower Kilronan, , ","Galway","Activity,Experience,Craft,Shopping,Shopping Centres and Department Store,Food Shops "
"Aran Sweater Market","https://www.aran.com/","00353646639756","52.05883009999999","-9.507572999999997","College St, Killarney, ","Kerry","Activity,Experience,Craft,Shopping,Shopping Centres and Department Store,Food Shops "
"Áras an Mhuilinn Regional Comhaltas Centre","https://www.arasanmhuilinn.ie/","00353449330644","53.5238343","-7.339915","Beside Arts Centre, Mount St, Bellview, Mullingar, ","Westmeath","Activity,Experience,Learning,Traditionally Irish,Attraction,Literary Ireland"
"Áras an Uachtaráin","https://heritageireland.ie/visit/places-to-visit/aras-an-uachtarain/","0035316770095","53.3595948","-6.3173567","Castleknock (part of Phoenix Park), Dublin, D08 E1W3","Dublin","Activity,Gardens,Attraction,Garden,Historic Houses and Castle,Nature and Wildlife"
"Áras Inis Gluaire","https://www.facebook.com/ArasInisGluaire/?ref=page_internal","003539781079","54.22246269999999","-9.9889332","Church St, Belmullet, ","Mayo","Activity,Experience,Craft,Shopping,Learning,Movies,Cinema,Venue,Art Gallery,Attraction,Music,Cafe,Food and Drink"
"Arboretum Inspirational Gardens","https://www.arboretum.ie/locations/arboretum-carlow/","00353599721558","52.74264139999999","-6.9749455","Old, Kilkenny Rd, Rathvinden, Leighlinbridge, R93 P9F4","Carlow","Activity,Experience,Gardening,Nature and Wildlife,Shopping,Shopping Centres and Department Store,Gardens,Attraction,Garden,Cafe,Food and Drink,Food Shops "
"Arbour Hill Cemetery","https://heritageireland.ie/visit/places-to-visit/arbour-hill-cemetery/","0035318213021","53.3509571","-6.287117299999999","Arbour Hill, Stoneybatter, , ","Dublin","Activity"
"Architectural Furniture","https://www.architectural-furniture.com/","00353861994683","53.7147404","-6.280193300000001","Blackhill Cres, Church Rd, Donacarney Little, Donacarney, , A92 FE2Y","Meath","Activity,Experience,Craft,Shopping,Shopping Centres and Department Store,Food Shops "
"Architectural History Ireland","https://www.riai.ie/discover-architecture/architecture-tours","0035316761703 ","53.33996249999999","-6.247335799999999","Merrion Square N, Saint Peter's, , ","Dublin","Activity,Activity Operator,Tour"
"Ard Bia at Nimmos","https://www.ardbia.com/","0035391561114","53.26979590000001","-9.0540644","Spanish Arch, Long Walk, , H91 E9XA","Galway","Activity,Food and Drink,Experience,Restaurant,Seafood,Vegetarian"
"Ardaire Springs Angling Centre","https://www.ardairesprings.com/","00353868128937","52.31012","-7.232","Arderra, Mooncoin, ","Kilkenny","Activity,Experience,Fishing,Angling,Activity Operator,Nature and Wildlife"
"Ardamine Beach",,"","52.6318515","-6.2292467","Ardamine Beach, Middletown, ","Wexford","Activity,Experience,Attraction,Beach"
"Ardara Heritage Centre","http://ardara.ie/?ait-item=tourist-information-at-the-heritage-centre","00353872424590","54.76200000000001","-8.4126667","N56, Ardara, ","Donegal","Activity,Experience,Attraction,Museums and Attraction,Cafe,Food and Drink"
"Ardcavan Coaches","https://ardcavan.com/","00353539122561","52.3665407","-6.4479172","Ardcavan, , ","Wexford","Activity,Experience,Transport,Coach,Road"
"Ardee Golf Club","https://www.ardeegolfclub.com/","00353416853227","53.8620033","-6.547862200000002","Townparks, Carrick Rd, Cappocksgreen, Ardee, A92 Y6P7","Louth","Golf Course,Activity,Experience,Golf,Driving Range,General,Golf Driving Range,Venue,Sports Venues,Food and Drink,Restaurant,Activity Operator"
"Ardfert Cathedral","https://heritageireland.ie/visit/places-to-visit/ardfert-cathedral/","00353667134711","52.32852429999999","-9.781629699999998","The Square, Farranwilliam, Ardfert, ","Kerry","Activity,Experience,Attraction,Historic Houses and Castle,Church Abbey,Monastery,Churches, Abbeys and Monastery,Ruins"
"Ardfert Indoor Market","https://www.iomst.ie/market/ardfert-indoor-market/","00353879209673","52.328152","-9.782158","St. Brendan's Community Centre, Ardfert, ","Kerry","Activity,Experience,Food and Drink,Restaurant,Shopping"
"Ardgillan Castle and Gardens","https://ardgillancastle.ie","0035318492212","53.58662329999999","-6.1600646","Ardgillan Demesne, Balbriggan, K32 WX87","Dublin","Activity,Experience,Learning,Attraction,Historic Houses and Castle,Castle,Gardens,Garden,Venue,Music,Cafe,Food and Drink,Local Produce,Restaurant,Nature and Wildlife,Tour"
"Ardkeen Quality Food Store","https://www.ardkeen.com/","0035351874620","52.2463722","-7.082386500000001","Dunmore Road, , X91 HP9W","Waterford","Activity,Food and Drink,Experience,Shopping,Shopping Centres and Department Store,Artisan,Restaurant,Local Produce,Vegan,Vegetarian,Food Shops "
"Urchin Bar & Adventures","https://www.urchin.ie/book-an-adventure.html","00353833743889","51.9511032","-7.722658099999999","Duffcarrick, Ardmore, P36 HR70","Waterford","Activity,Experience,Kayaking,Activity Operator"
"Ardmore Beach ","https://www.blueflag.global/show-site?siteId=17012","00353818102020","51.951815","-7.7225042","Ardmore Beach, 2-6 Cois Trá, Duffcarrick, Ardmore, P36 WT25","Waterford","Activity,Experience,Attraction,Beach"
"Ardmore Pottery Gallery Shop","https://ardmorepottery.com/","003532494152","51.9494751","-7.718380499999999","Cliff Rd, Dysert, Ardmore, ","Waterford","Activity,Experience,Craft,Shopping,Shopping Centres and Department Store,Food Shops "
"Ardmore Round Tower and Cathedral","https://visitwaterford.com/vw_listing/ardmore-round-tower-cathedral/","","51.948688456980555","-7.726038959663356","Tower Hill, Ardmore, ","Waterford","Activity,Experience,Church Abbey,Monastery,Attraction,Churches, Abbeys and Monastery"
"Ardmulchan Church","http://www.megalithicireland.com/Ardmulchan%20Church,%20Meath.html","","53.6718102","-6.628602",", Kells, ","Meath","Activity,Experience,Church Abbey,Monastery,Attraction,Churches, Abbeys and Monastery,Ruins,Historic Houses and Castle"
"Ardnahinch Beach","https://beachawards.ie/green-coast/sites/","","51.85101369999999","-8.010121299999998","Ardnahinch, Ardnahinch Bay, , ","Cork","Activity,Experience,Attraction,Beach"
"Ards Coffee Tree","https://www.facebook.com/ardscoffeetree","00353851008401","55.15840559999999","-7.863675100000003","Ards, , F92 Y23R","Donegal","Activity,Food and Drink,Experience,Cafe"
"Ards Forest Park","https://www.coillte.ie/site/ards-forest-park/","00353749121139","55.1554989","-7.898503099999999","Ards Forest Park, , ","Donegal","Activity,Experience,Bird Watching,Nature and Wildlife,Walking ,Walking,Forest Park,Park and Forest Walk,Public Park"
"Arena7 Entertainment Complex","https://arena7.ie/","00353749128853","54.9571799","-7.7060473","1 - 4, Ballyraine Industrial Estate, 4 Iona Rd, Ballyboe Lisnenan, Letterkenny, F92 VRC8","Donegal","Activity,Experience,Restaurant,Activity Operator,Food and Drink,Pubs and Bar,Fast Food"
"Arigna Mining Experience","https://www.arignaminingexperience.ie","00353719646466","54.07755","-8.120751","Derreenavoggy, Carrick-On-Shannon, , ","Roscommon","Activity,Experience,Learning,Attraction,Museums and Attraction,Cafe,Food and Drink,Food Shops ,Shopping"
"Arklow Golf Club","https://www.arklowgolflinks.com/","0035340232492","52.789663","-6.1495242","Abbeylands, Tinahask Lower, Arklow, ","Wicklow","Golf Course,Activity,Experience,Golf,Food and Drink,Restaurant"
"Arklow Beach",,"","52.81185983273661","-6.126780941650395","South Beach, Arklow, ","Wicklow","Activity,Experience,Attraction,Beach"
"Arklow Maritime Museum","https://www.arklowmaritimeheritage.ie/","00353864460784","52.7985048","-6.1493991","N Quay, Ferrybank, Y14 Y744","Wicklow","Activity,Experience,Attraction,Museums and Attraction"
"Armoury Café Glencree","https://www.glencree.ie/cafe"," 0035312766025","53.1988883","-6.292690599999998","Centre for Peace and Reconciliation, Aurora, Glencree, ","Wicklow","Activity,Food and Drink,Experience,Restaurant,Craft,Shopping,Shopping Centres and Department Store,Artisan,Cafe,Food Shops "
"Arnotts","https://www.arnotts.ie","0035318050400","53.3491377","-6.2631308","12 Henry St, Northside, Dublin, D01 C3Y9","Dublin","Activity,Shopping,Shopping Centres and Department Store"
"Aroma's Café at The Landmark Hotel","https://www.thelandmarkhotel.com/food/aromas-cafe","00353719622222","53.9433878","-8.093270799999999","Shannon Lodge, Townparks, Carrick-On-Shannon, , ","Leitrim","Activity,Food and Drink,Experience,Cafe"
"Around Ireland: Dublin & U2 Walking Tour","https://aroundireland.ie/","00353899835842","53.3498053","-6.2603097",", , ","Dublin","Activity,Activity Operator,Tour,Walking"
"Arran Street East","https://arranstreeteast.ie/","0035318729144","53.3483106","-6.270477799999999","1 Little Green St, Smithfield, Dublin, D07 K744","Dublin","Activity,Craft,Shopping,Shopping Centres and Department Store"
"Arranmore Blueway","https://arranmoreblueway.com/","00353749520533","54.9874345","-8.5350585","Arranmore Island, , ","Donegal","Activity,Experience,Cycling,Kayaking,Activity Operator,Walking ,Walking,Nature and Wildlife"
"The Arranmore Ferry","https://thearranmoreferry.com/","00353873171810","54.98312699999999","-8.442341100000002","Blue Ferry Office, Burtonport Pier, Burtonport, F94 C449","Donegal","Activity,Experience,Transport,Activity Operator,Attraction,Embarkation Point,Nature and Wildlife,Boat,Tour,Coach,Road"
"Arranmore Ferry Service","https://arranmoreferry.com/","00353749542233","54.98299400000001","-8.4418525","Ferry Booking Office, Aran Island, Burtonport, F94 AP89","Donegal","Activity,Experience,Transport,Coach,Road"
"Arranmore Guided Tours","https://www.facebook.com/Arranmorewalkingtours","00353873162146","54.9874345","-8.5350585","Arranmore, , ","Donegal","Activity,Experience,Activity Operator,Tour,Walking"
"Art & Antiques Quarter","https://www.facebook.com/dublinsantiquequarter","0035314731126","53.340223","-6.273896","60 Francis Street, Dublin City Centre, ","Dublin","Activity,Shopping,Shopping Centres and Department Store"
"Art It","https://artit.ie/","00353863085270","52.6552401","-7.244461999999999","MacDonagh Junction Shopping Centre, Hebron Road, Highhays, Kilkenny City, ","Kilkenny","Activity,Craft,Shopping,Learning,Activity Operator"
"ArtD Gallery & Studio","https://www.instagram.com/artdgalleryandstudio/","00353870519069","52.997224","-8.1273576","Unit 2, House, Ballyhaden, Ballyfin, , E45 WD29","Tipperary","Activity,Experience,Craft,Shopping,Learning,Art Gallery,Attraction,Activity Operator"
"Artful Tours","https://artfultours.ie/","00353873299375","53.3603142","-6.315054200000001",", Dublin City, ","Dublin","Activity,Activity Operator,Tour,Walking"
"Árthach Dána, Amergin Memorial Sculpture & Sundial",,"","51.8256197","-10.172165","Silver Sands, Lower Main St, Waterville, ","Kerry","Activity,Attraction,Historic Houses and Castle,Public Sculpture"
"Arthur Griffith",,"","53.340122","-6.254252","Office of the Houses of the Oireachtas, Leinster House, Merrion Street, , ","Dublin","Activity,Attraction,Public Sculpture"
"Arthur McGuire Tours","https://www.arthurmcguiretours.com/","00353867350942","53.2743394","-9.0492276",", Eyre Square, ","Galway","Activity,Experience,Learning,Activity Operator,Tour,Walking"
"Arthur's Bar at the Court Yard Hotel","https://www.courtyard.ie/arthurs-bar.html","0035316295100","53.36374419999999","-6.488774599999998","Main St, Leixlip, ","Kildare","Activity,Food and Drink,Experience,Pubs and Bar"
"Arthur's Quay Park",,"","52.66537349999999","-8.6262277","Arthur's Quay Park, Arthurs Quay, Limerick City, ","Limerick","Activity,Public Park,Nature and Wildlife"
"Arthur’s Way Heritage Trail","https://intokildare.ie/listings/arthurs-way/","","53.340503084894706","-6.5377007732815855","Celebridge, , ","Kildare","Activity,Walking ,Walking,Activity Operator,Tour"
"Arthur Wellesley Duke Of Wellington",,"","53.349086","-6.303231",", Phoenix Park, ","Dublin","Activity,Attraction,Public Sculpture"
"Art4Limerick Popup","https://www.facebook.com/ArtLimerickPopup","","52.6695683","-8.624471699999999","19 Nicholas St, , V94 A7X6","Limerick","Activity Experience Craft Shopping Shopping Centres and Department Store Art Gallery Attraction Food Shops "
"Artzone","https://www.artzone.ie/","0035314990614","53.3003042","-6.282937300000001","VFI Court, Castleside Dr, Rathfarnham, D14 EY73","Dublin","Activity,Learning"
"Asana School of English","https://www.facebook.com/Asanaireland/","00353669472458","51.950922","-10.212643","O'Connell Centre, Cahersiveen, ","Kerry","Activity,Experience,Learning"
"Ashbourne Golf Club","https://www.ashbournegolfclub.ie/","0035318352005","53.5039087","-6.3794638","Milltown Rd, Archerstown, Ashbourne, A84 R528","Meath","Golf Course,Activity,Experience,Golf,Food and Drink,Restaurant,Activity Operator"
"Ashford Castle Golf Club","https://ashfordcastle.com/experiences/golf","00353949546003","53.5371975","-9.279209","The Derries, Strandhill, ","Mayo","Golf Course,Activity,Experience,Golf,Food and Drink,Restaurant,Local Produce,Activity Operator"
"Ashford Equestrian Centre","https://ashfordequestrian.com/","00353949546507","53.53599190000001","-9.2928038","Equestrian Center, Ashford Or Cappacorcoge, Cong, F31 R291","Mayo","Activity,Experience,Horse Riding,Equestrian"
"Ashford Outdoors","https://www.ashfordoutdoors.com/index.php/en/","00353949546507","53.5388177","-9.280153599999998","Ashford Castle Drive, , ","Mayo","Activity,Climbing,Activity Operator,Cycling,Horse Riding,Equestrian,Kayaking,Zip Lining,Venue,Sports Venues,Bike Rental,Tour"
"Ashgrove Pitch and Putt Club","https://www.facebook.com/ashgrovepp","00353857253254","52.2890853","-7.2232463","Rathkieran, , ","Kilkenny","Activity,Experience,Golf,Pitch And Putt,General,Pitch and Putt,Activity Operator"
"Ashtown Stables","http://www.ashtownstables.com","0035318383807","53.3748696","-6.333009100000001","Ashtown Road, Ashtown, , D15 HFX5","Dublin","Activity,Horse Riding,Equestrian"
"Askeaton Castle","https://heritageireland.ie/places-to-visit/askeaton-castle/","00353858013385","52.6005285","-8.973940999999998",", Askeaton, ","Limerick","Activity,Experience,Church Abbey,Monastery,Attraction,Churches, Abbeys and Monastery,Tour"
"Astropark Events","https://www.astropark.ie/football/","0035318060088","53.3971295","-6.230142599999999","Oscar Traynor Rd, Kilmore, D17 Y998","Dublin","Activity"
"ATC Language & Travel","https://atclanguageschools.com/","0035312845512","53.3412586","-6.2634159","ATC Language Schools, 34-34 William St S, Dublin, D02 T205","Dublin","Activity,Learning"
"ATC Language & Travel","https://atclanguageschools.com/","00353112807525","53.19857898685899","-6.0955576693115745","Dunluice House, 82/83 Strand Road, Bray, ","Wicklow","Activity,Experience,Learning"
"Ath Luain Restaurant at the Shamrock Lodge Hotel","https://www.shamrocklodgehotel.ie/food-beverage.html","00353906492601","53.4215227","-7.950463799999999","Clonown Rd, Athlone, ","Westmeath","Activity,Food and Drink,Experience,Restaurant"
"Athas Tours","https://athastours.com/","00353863009611","53.2743394","-9.0492276",", Eyre Square, ","Galway","Activity,Experience,Activity Operator,Tour,Walking"
"Athassel Abbey","https://www.cashel.ie/local-attractions/","","52.475485930858284","-7.97276417993487",", Corbally, ","Tipperary","Activity,Church Abbey,Monastery,Attraction,Churches, Abbeys and Monastery,Ruins,Historic Houses and Castle"
"Athenry Arts and Heritage Centre","https://www.athenryheritagecentre.com","0035391844661","53.299265","-8.746298000000001","St. Marys, The Square, Gorteenacra, Athenry, H65 WC57","Galway","Activity,Experience,Learning,Attraction,Museums and Attraction,Tour"
"Athenry Castle","https://heritageireland.ie/visit/places-to-visit/athenry-castle/","0035391844797","53.2999964","-8.7446178","Gorteenacra, Athenry, ","Galway","Activity,Experience,Castle,Attraction,Historic Houses and Castle"
"Athenry Farmers Market","https://www.iomst.ie/market/athenry-farmers-market-2/","00353876272017","53.2990862","-8.746184699999999","Gorteenacra, Athenry, ","Galway","Activity,Experience,Food and Drink,Restaurant,Shopping,Shopping Centres and Department Store"
"Athenry Golf Club","https://www.athenrygolfclub.net/","0035391794466","53.282795","-8.845527",", Palmerstown, ","Galway","Golf Course,Activity,Experience,Golf,Food and Drink,Restaurant,Activity Operator"
"Athgarvan Pitch and Putt Club","http://www.athgarvanpandp.com/","00353862250049","53.1503671","-6.7968132","Athgarvan Rd, Blackrath, Newbridge, ","Kildare","Activity,Experience,Pitch And Putt,General,Pitch and Putt,Activity Operator"
"Athlone Castle","https://www.athlonecastle.ie/","00353906442130","53.42309969999999","-7.942819600000001","Castle St, Athlone, N37 A6D7","Westmeath","Activity,Experience,Castle,Attraction,Historic Houses and Castle,Museums and Attraction"
"Athlone Equestrian Centre","https://athloneequestrian.ie/","00353862433609","53.4288013","-7.876128400000002","Moydrum Rd, Moydrum, Athlone, ","Westmeath","Activity,Experience,Horse Riding,Equestrian,Activity Operator"
"Athlone Golf Club","https://www.athlonegolfclub.ie/","00353906492073","53.4673032","-7.991446499999999","Hodson Bay, Athlone, ","Roscommon","Golf Course,Activity,Experience,Golf,Food and Drink,Restaurant"
"Athlone Guided Tours","https://www.athloneguidedtours.ie/","00353861963492","53.37583369999999","-8.0053351","Cornafulla, , ","Roscommon","Activity,Experience,Activity Operator,Tour,Walking"
"Athlone Little Theatre","https://www.athlonelittletheatre.ie/","00353906474324","53.4234322","-7.931524","St Mary's Pl, Loughanaskin, Athlone, N37 XR52","Westmeath","Activity,Experience,Venue,Comedy"
"Athlone Marina","https://www.discoveringireland.com/athlone-marina/","00353906478687","53.42549440000001","-7.942883200000002","Abbey Rd, Athlone, ","Westmeath","Activity,Experience,Marina,Venue"
"Athlone Regional Sports Centre","https://www.athlonersc.ie/","00353906470975","53.42915699999999","-7.921768799999999","Brawny Rd, Curragh, Athlone, N37 W3W0","Westmeath","Activity,Experience,Swimming,Swimming Pools and Water Park,Venue,Fitness and Leisure,Activity Operator"
"Athlone Towncentre Shopping Centre","https://athlonetowncentre.com/","00353906484387","53.4239889","-7.9359324","Mardyke St, Athlone, ","Westmeath","Activity,Experience,Shopping,Shopping Centres and Department Store,Food Shops "
"Athy Boat Tours","https://athyboattours.com/","00353874335350","52.9922441","-6.9956443","Townparks, Athy, ","Kildare","Activity,Experience,Cruising,Sailing,Activity Operator,Venue,Sports Venues,Boat,Tour"
"Athy Golf Club","https://www.athygolfclub.com/website/","00353598631729","53.0083734","-6.9625049","Geraldine Rd, Geraldine, Athy, ","Kildare","Golf Course,Activity,Experience,Golf,Driving Range,General,Golf Driving Range,Activity Operator"
"Shackleton Museum Athy","https://shackletonmuseum.com/","00353598633075","52.9916784","-6.983254100000001","Athy Town Hall, Emily Square, Athy, R14 KW65","Kildare","Activity,Experience,Attraction,Museums and Attraction,Tour"
"Athy Rowing & Canoeing","https://www.facebook.com/AthyRowingCanoeing/","00353879971842","52.9913752531638","-6.98384118553331",", Athy, ","Kildare","Activity,Kayaking,Activity Operator,Venue,Sports Venues"
"Atlantic Air Adventures","https://atlanticairadventures.com","0035361363687","52.713908","-8.870205","Shannon Rd, Smithstown, Shannon, , ","Clare","Activity,Learning,Activity Operator,Attraction,Museums and Attraction"
"Atlantic Boating Services","https://atlanticboat.ie/","00353872562948","51.5195579","-9.402294300000001","Church Cross, Skibbereen, P81 NY31","Cork","Activity,Experience,Activity Operator,Boat,Tour,Food Shops ,Shopping"
"Atlantic Charters","http://www.atlanticcharters.ie","00353(0)872575269","51.7062294184054","-8.52257059787513",", Kinsale, ","Cork","Activity,Experience,Cruising,Activity Operator,Nature and Wildlife,Boat,Tour"
"Atlantic Coastal Cruises","https://www.atlanticcoastalcruises.com","00353872214497","54.6327034","-8.4449878","Killybegs Marina, Shore Road, Glebe, Killybegs, ","Donegal","Activity,Experience,Activity Operator,Nature and Wildlife,Boat,Tour"
"Atlantic Irish Seaweed","https://www.atlanticirishseaweed.com/","00353861062110","51.76035719999999","-10.1424371","Darrynane More, Derrynane, ","Kerry","Activity,Experience,Food and Drink,Restaurant,Learning,Activity Operator,Nature and Wildlife,Food Trails and Tour,Tour"
"Atlantic Language School Galway","https://www.atlanticlanguage.com/","0035391566053","53.27404","-9.046042","Fairgreen House, Fairgreen Road, Galway City, ","Galway","Activity,Experience,Learning"
"Atlantic Offshore Adventures","https://atlanticoffshoreadventures.com/","00353879443796","51.6959702","-8.512848599999998","4, Castlepark Village, Kinsale, P17 PH02","Cork","Activity,Experience,Kayaking,Activity Operator,Surfing"
"Atlantic Road Tours Dingle","https://atlanticroadtoursdingle.com/","00353871612023","52.1387967835848","-10.278144347143552","The Marina, Dingle, ","Kerry","Activity,Experience,Activity Operator,Tour"
"Atlantic School of English & Active Leisure","https://www.atlantic-english.com/","003532828943","51.5269241","-9.5454434","Main St, Meenvane, Schull, ","Cork","Activity,Experience,Learning,Activity Operator"
"Atlantic Scuba Adventures","https://atlanticscubaadventures.ie/","00353861993174","53.25987749999999","-9.6027851","An Crompán, Barraderry, Carraroe Industrial Estate, , H91 X4WH","Galway","Activity,Experience,Activity Operator,Nature and Wildlife"
"Atlantic Sea Kayaking","https://www.atlanticseakayaking.com/","003532821058","51.5328949","-9.1679116","Reen, Unionhall, , ","Cork","Activity,Kayaking,Activity Operator,Nature and Wildlife,Tour"
"Atlantic Sheepdogs","https://atlanticsheepdogs.ie/","00353857622627","54.39012499999999","-8.545450999999998","Streedagh, Streedagh, Grange, ","Sligo","Activity,Experience,Agriculture,Nature and Wildlife,Learning,Visitor Farm,Attraction,Activity Operator"
"Atlantic Surf School","https://atlanticsurfschoolstrandhill.ie/","00353831862527","54.2703037","-8.607827000000002","Atlantic Surf School, Lodge and Hostel, Shore Road, Carrowbunnaun, Strandhill, ","Sligo","Activity,Experience,Surfing,Activity Operator"
"Atlantic Whale & Wildlife Tours","https://www.atlanticwhaleandwildlifetours.com/","00353877744401","51.63554199999999","-8.710766699999999","The Pier, Courtmacsherry, ","Cork","Activity,Experience,Activity Operator,Nature and Wildlife,Boat,Tour"
"Atlas Language School","https://atlaslanguageschool.com/","0035314782845","53.33027426761017","-6.264600765945488","Portobello House, South Richmond Street, Portobello, , ","Dublin","Activity,Learning"
"Attymass Salmon Fishery",,"00353(0)949258151","54.1151859688673","-9.15507203231098","Attymass Angling Association, C/o Mr Padraic Garret, Carrowkerribla, Attymass, Ballina, ","Mayo","Activity,Experience,Fishing,Angling"
"Auburn Lodge Oyster Restaurant","https://www.auburnlodge.com/oyster-restaurant.html","00353656821247","52.865498","-8.980652599999999","Galway Road, Ballycorey, Ennis, ","Clare","Activity,Food and Drink,Experience,Restaurant"
"Aughnanure Castle","https://heritageireland.ie/visit/places-to-visit/aughnanure-castle/","0035391552214","53.4187829","-9.2757515","Aughnanure, Oughterard, H91 PX20","Galway","Activity,Experience,Castle,Attraction,Historic Houses and Castle,Tour"
"Aughrim Country Fair","https://www.facebook.com/aughrimtownandcountry/","00353876254390","52.853624","-6.333473","Park Pavillion, Rednagh Road, Aughrim, ","Wicklow","Activity,Experience,Food and Drink,Restaurant,Food Shops ,Shopping"
"Aughris Head",,"","54.268978","-8.756931","Unnamed Road, Cartronofarry East, , ","Sligo","Activity,Experience,Walking ,Walking,Attraction,Beach,Natural Landscape"
"Augustinian Abbey Adare","https://www.ireland.anglican.org/","0035361396227","52.567928","-8.784585","The Rectory, Adare, ","Limerick","Activity,Experience,Attraction,Historic Houses and Castle,Church Abbey,Monastery,Churches, Abbeys and Monastery"
"Augustinian Abbey Lorrha","http://www.megalithicireland.com/Lorrha%20Augustinian%20Abbey,%20Tipperary.html","","53.089413915908885","-8.12199915933229",", Lorrha, ","Tipperary","Activity,Experience,Church Abbey,Monastery,Attraction,Churches, Abbeys and Monastery,Ruins,Historic Houses and Castle"
"Auld Dubliner","https://aulddubliner.ie/","0035316770527","53.34555","-6.26198","24/25 Temple Bar, Dublin City Centre, ","Dublin","Activity,Food and Drink,Pubs and Bar"
"Aultaghreagh Cottage Garden","https://www.aultaghreaghcottagegarden.com/","00353238855307","51.7782455","-9.091795","Aultaghreagh, , P47 XK71","Cork","Activity,Experience,Gardens,Attraction,Garden"
"Aunty Lena's Bar","http://www.auntylenas.com/","0035361396114","52.5642363","-8.7909353","Main St, Blackabbey, Adare, ","Limerick","Activity,Food and Drink,Experience,Pubs and Bar"
"Aura Drogheda Leisure Centre","https://www.auraleisure.ie/location/drogheda/","00353419874478","53.71305910000001","-6.374706400000001","Marley's Ln, Rathmullan, ","Louth","Activity,Experience,Swimming,Swimming Pools and Water Park,Venue,Fitness and Leisure,Swimming Pool,Activity Operator"
"Aura Dundalk Leisure Centre","https://www.auraleisure.ie/location/dundalk/","00353429336230","54.003193","-6.387476","St. Alphonsus Road, Dundalk, ","Louth","Activity,Experience,Learning,Swimming,Swimming Pools and Water Park,Venue,Activity Operator,Fitness and Leisure,Swimming Pool"
"Aura Leisure Centre Trim","https://www.auraleisure.ie/location/trim/","00353469438730","53.5535922","-6.799743200000001","Newhaggard Rd, Trim, ","Meath","Activity,Experience,Swimming,Swimming Pools and Water Park,Venue,Activity Operator,Fitness and Leisure,Swimming Pool,Sports Venues"
"Aura Leisure Navan","https://www.auraleisure.ie/location/navan/","00353469079950","53.6659129","-6.6954482","Windtown Rd, Clonmagaddan, Navan, ","Meath","Activity,Experience,Swimming,Swimming Pools and Water Park,Venue,Fitness and Leisure,Swimming Pool,Activity Operator"
"Aura Leitrim Leisure Centre","https://www.auraleisure.ie/location/leitrim/","00353719671771","53.9484591","-8.081224299999999","Unnamed Road, Attifinlay, Carrick-On-Shannon, , N41 T634","Leitrim","Activity,Experience,Swimming,Swimming Pools and Water Park,Venue,Fitness and Leisure,Swimming Pool,Activity Operator"
"Aura Letterkenny Leisure Complex","https://www.auraleisure.ie/location/letterkenny/","00353749106422","54.9460448","-7.750252100000002","Aura Letterkenny Complex, Sallaghagrane, Letterkenny, ","Donegal","Activity,Experience,Swimming,Swimming Pools and Water Park,Venue,Fitness and Leisure,Swimming Pool,Activity Operator"
"Aura Tullamore Leisure Centre","https://www.auraleisure.ie/location/tullamore/","00353579329398","53.26899913352742","-7.471941112411514","Hophill Road, Tullamore, ","Offaly","Activity,Experience,Swimming,Swimming Pools and Water Park,Venue,Fitness and Leisure,Swimming Pool,Activity Operator"
"Aura Youghal Leisure Centre","https://www.auraleisure.ie/location/youghal/","003532491614","51.93537500000001","-7.860074000000001","Claycastle, Youghal, ","Cork","Activity,Experience,Swimming,Swimming Pools and Water Park,Venue,Fitness and Leisure,Swimming Pool"
"Austies Pub & Kitchen","https://www.austies.ie","00353719117786","54.3047859","-8.563976799999999","Rosses Upper, Rosses Point, ","Sligo","Activity,Food and Drink,Experience,Restaurant,Cafe,Pubs and Bar,Seafood"
"Avanti Language Institute","https://avantilanguage.com/","0035345881661","53.2178696","-6.663982499999999","1A S Main St, Naas East, Naas, W91 AW80","Kildare","Activity,Experience,Learning"
"Avenue Café, Restaurant & Bar","https://avenuecafe.ie/","0035316285003","53.38206210000001","-6.588828799999999","Main St, Maynooth, ","Kildare","Activity,Food and Drink,Experience,Restaurant,Pubs and Bar,Cafe"
"Avis Rent A Car","https://www.avis.co.uk/drive-avis/car-hire-locations/europe/ireland/cork/cork-airport#","00353214281111","51.8498603","-8.489819599999999","Cork Airport, Arrivals Hall, Kinsale Road, Lehenagh More, , T12 W7WR","Cork","Activity,Experience,Transport,Coach,Road"
"Avoca Kilmacanoge","https://www.avoca.com/en/stores-and-cafes/kilmacanoge","0035312746900","53.17315199999999","-6.142279599999998","Glencormick South, , A98 CC02","Wicklow","Activity,Experience,Craft,Shopping,Shopping Centres and Department Store,Gardens,Attraction,Garden,Cafe,Food and Drink,Food Shops "
"Avoca Handweavers Molls Gap","https://www.avoca.com/en/stores-and-cafes/molls-gap","00353646634720","51.9383811","-9.6577997","Ring of Kerry, Eirk, Killarney, ","Kerry","Activity,Experience,Craft,Shopping,Shopping Centres and Department Store,Cafe,Food and Drink,Food Shops "
"Avoca Malahide","https://www.avoca.com/en/stores-and-cafes/malahide","0035318931900","53.44498660000001","-6.162744500000001","Malahide Castle & Gardens, Malahide Castle Malahide Demense, Dublin Rd, Malahide Demesne, Malahide, ","Dublin","Activity,Shopping,Shopping Centres and Department Store"
"Avoca Mill","https://www.avoca.com/en/our-mill","0035340235105","52.8614008","-6.211014599999999","Knockanree Lower, Avoca, Y14 HN29","Wicklow","Activity,Food and Drink,Experience,Restaurant,Craft,Shopping,Shopping Centres and Department Store,Activity Operator,Cafe,Vegetarian,Food Shops ,Tour"
"Avoca Painting School","https://avocagallery.ie/welcome-to-the-avoca-painting-school/","0035340235555","52.880018","-6.227527999999999","Avoca Studio Gallery, Knockanode, Avoca, Y14 V527","Wicklow","Activity,Experience,Craft,Shopping,Learning,Activity Operator"
"Avoca Powerscourt","https://www.avoca.com/en/stores-and-cafes/powerscourt","0035319032116","53.18434479999999","-6.188089499999998","Powerscourt House, Powerscourt Demesne, Enniskerry, ","Wicklow","Activity,Experience,Restaurant,Shopping,Shopping Centres and Department Store,Attraction,Historic Houses and Castle,Cafe,Food and Drink,Vegetarian,Nature and Wildlife,Food Shops "
"Avoca Studio Gallery","https://avocagallery.com/welcome-to-the-avoca-painting-school/","0035340235555","52.8800149","-6.2272958","Castlehoward, , Y14 V527","Wicklow","Activity,Experience,Craft,Shopping,Art Gallery,Attraction"
"Avoca Suffolk Street","https://www.avoca.com/en/stores-and-cafes/suffolk-street","0035316774215","53.34383090000001","-6.260739700000001","Avoca Suffolk Street, Suffolk Street, Dublin City, ","Dublin","Activity,Shopping,Shopping Centres and Department Store"
"Avoca Walking Tours","https://www.facebook.com/avocawalks/","00353868517617","52.88498997871688","-6.233063793319957","The Vale of Avoca, Avoca, ","Wicklow","Activity,Climbing,Activity Operator,Walking ,Walking,Nature and Wildlife,Tour"
"Avondale House and Forest Park","https://www.beyondthetreesavondale.com/avondale-house/","0035340446111","52.91183110000001","-6.2220509","Beyond the Trees, Forest Park, Avondale, Rathdrum, A67 P303","Wicklow","Activity,Experience,Activity Operator,Attraction,Historic Houses and Castle,Forest Park,Park and Forest Walk,Walking,Museums and Attraction,Cafe,Food and Drink,Tour"
"Awaken Adventures","https://awakenadventures.ie","00353838424580","54.9651529","-7.6917496","Glebe, Letterkenny, ","Donegal","Activity,Experience,Climbing,Activity Operator,Kayaking,Photography,Learning,Walking ,Walking,Tour"
"Away to Me Sheepdog Demonstrations","https://awaytome.ie/","00353872366380","54.6671713","-8.782090700000001","Main Street, Glencolumbkille, Malin Beg, F94 YE09","Donegal","Activity,Experience,Activity Operator,Visitor Farm,Attraction,Nature and Wildlife,Boat,Tour"
"Awesome Walls Climbing Centre Dublin","https://awesomewalls.ie/dublin/","0035318800088","53.40178119999999","-6.3161365","Unit 6, North Park, North Rd, Finglas, D11 YP40","Dublin","Activity,Climbing,Activity Operator,Adventure Park"
"AWOL Outdoor Adventure","https://www.awolpaintball.ie/","003534786224","54.4085742","-7.004411299999999","Killybrone, Derrylevick, H18 RY83","Monaghan","Activity,Experience,Kayaking,Activity Operator,Walking ,Walking"
"Axe Club Glendalough","https://www.axeclub.ie/wicklow/","0035315170199","52.9999166","-6.2971812","Axe Club, Brockagh, Glendalough, A67 K3K6","Wicklow","Activity,Experience,Activity Operator,Cafe,Food and Drink"
"Axe Club (Dublin)","https://www.axeclub.ie/dublin/","0035315170199","53.3563977","-6.2423359","End of, Gaelic St, North Wall, Dublin, ","Dublin","Activity,Activity Operator,Venue,Sports Venues"
"Axe Junkies","https://axejunkies.ie/","00353858227585","52.2621711567404","-7.115158899139715","15/16 O'Connell Street, Waterford City, ","Waterford","Activity,Activity Operator"
"Azzurro Restaurant","https://azzurro.ie","0035351383141","52.15338730000001","-6.9949201","Dock Rd, Nymphhall, Dunmore East, ","Waterford","Activity,Food and Drink,Experience,Restaurant"
"B Bar at Clayton Hotel Burlington Road","https://www.claytonhotels.com/burlington-road/dining/","0035316185600","53.33055689999999","-6.248901299999999","Leeson Street Upper, , D04 A318","Dublin","Activity,Food and Drink,Pubs and Bar"
"B's Restaurant at the Castle Hotel & Leisure Centre Macroom","https://www.castlehotel.ie/en/bs-restaurant/","003532641074","51.90481399999999","-8.958515900000002","Main St, Sleveen East, Macroom, ","Cork","Activity,Food and Drink,Experience,Restaurant"
"Bá Bhaile Uí Thiarnáin (Ballyhiernan Bay)",,"","55.24735579999999","-7.7275478","Unnamed Road, Rinboy, , ","Donegal","Activity,Experience,Attraction,Beach"
"Fintra Beach","https://www.blueflag.global/show-site?siteId=6583","","54.6355614","-8.488287599999998","Glenlee, , ","Donegal","Activity,Experience,Attraction,Beach,Natural Landscape"
"Baan Thai Restaurant - Ballsbridge","https://www.baanthai.ie/","0035316608833","53.3289919","-6.230210599999999","16 Merrion Rd, Ballsbridge, D04 E9P7","Dublin","Activity,Food and Drink,Restaurant"
"Bad Ass Café","https://badasstemplebar.ie/","0035316753005","53.34535643133514","-6.2628673907726125","9 - 11 Crown Alley, , Temple Bar, , ","Dublin","Activity,Food and Drink,Restaurant,Pubs and Bar"
"Baginbun Beach",,"","52.1765851","-6.830736399999999","Ramstown, , ","Wexford","Activity,Experience,Attraction,Beach"
"Bahana Forest","https://www.coillte.ie/our-forests/explore/","","52.50760316899152","-6.921629777832095","Banaha, St. Mullins, , ","Carlow","Activity,Experience,Bird Watching,Nature and Wildlife,Fishing,Angling,Walking ,Walking,Forest Park,Park and Forest Walk"
"Bailey's Bar & Bistro at Clanard Court Hotel","https://www.clanardcourt.ie/baileys-bar.html","00353598640666","52.9984985","-6.9584305","Unnamed Road, Gallowshill, , ","Kildare","Activity,Food and Drink,Experience,Pubs and Bar,Restaurant"
"Bailieborough Leisure Centre","https://bailieboroughleisurecentre.com/wordp/","00353429666644","53.91465359999999","-6.9730737","Chapel Rd, Tanderagee, Bailieborough, ","Cavan","Activity,Experience,Swimming,Swimming Pools and Water Park,Venue,Fitness and Leisure,Swimming Pool,Sports Venues,Activity Operator"
"Baily's Corner","https://www.facebook.com/BailysCorner","00353667126230","52.2692537","-9.703867899999999","30 Lower Castle St, Tralee, V92 N9FT","Kerry","Activity,Food and Drink,Experience,Pubs and Bar"
"Baja Bikes","https://www.bajabikes.eu/en/bike-tours-dublin/","00353646252199","53.33963860000001","-6.266857499999999","2 Whitefriar Pl, Dublin, D08 XYE6","Dublin","Activity,Activity Operator,Tour"
"Bakers Corner","https://bakerscorner.ie/","0035312807782","53.280639","-6.15778","Bakers Corner, Kill O The Grange, Dun Laoghaire, , ","Dublin","Activity,Food and Drink,Pubs and Bar"
"Balbriggan Beach",,"0035318400077","53.6120165295749","-6.18241185874471","C/O Fingal Tourism, MainscourtMain Street, Swords, ","Dublin","Activity,Attraction,Beach,Nature and Wildlife"
"Balbriggan Fish and Farmers Market",,"0035318413100","53.716601","-6.356669","Georges Square, Balbriggan, ","Dublin","Activity,Food and Drink,Restaurant,Shopping,Shopping Centres and Department Store"
"Balbriggan Golf Club","https://www.balbriggangolfclub.com/","0035318412229","53.59581610000001","-6.1826159","Kilsough South, , K32 HH00","Dublin","Activity,Golf"
"Balcarrick Golf Club","https://www.balcarrickgolfclub.com/","0035318436957","53.4716126","-6.129112999999999","Corballis, Donabate, K36 YY64","Dublin","Activity,Golf"
"Balheary Open Golf Course","https://www.facebook.com/balhearypar3","0035318409655","53.4794141","-6.2237173","Balheary Rd, Balheary, Swords, ","Dublin","Activity,Golf"
"Balheary Shooting","https://www.balhearyshootinggrounds.com/","0035318078814","53.4906652","-6.273701000000001","Warblestown, Swords, K67 ER20","Dublin","Activity"
"Balla Golf Club","https://www.ballagolfclub.com/","00353873814440","53.80504419999999","-9.1397022","Moat, , ","Mayo","Golf Course,Activity,Experience,Golf,Activity Operator"
"Ballagh Studio","http://www.rosharvey.com/","00353749370684","55.313883","-7.297496000000001",", Ballagh, ","Donegal","Activity,Experience,Craft,Shopping,Art Gallery,Attraction"
"Ballaghaderreen Cathedral","https://achonrydiocese.org/","00353949860011","53.90367329999999","-8.578006499999999","Cathedral St, Kilcolman, Ballaghaderreen, ","Roscommon","Activity,Experience,Church Abbey,Monastery,Attraction,Churches, Abbeys and Monastery"
"Ballaghaderreen Golf Course","https://www.facebook.com/BallaghaderreenGolfClub/","00353871463628","53.8753751","-8.5734051","Aghalustia, , F45 PH36","Roscommon","Golf Course,Activity,Experience,Golf"
"Ballina Farmers Market","https://www.facebook.com/ballinafarmersmarket1","00353868507424","54.115348","-9.155585","Market Square, Ballina, ","Mayo","Activity,Experience,Food and Drink,Restaurant,Shopping,Shopping Centres and Department Store,Food Shops "
"Ballina Golf Club","https://www.ballina-golf.com/","003539621050","54.10817710000001","-9.1337642","Mossgrove, Ardnaree, Ballina, F26 W5P7","Mayo","Golf Course,Activity,Experience,Golf,Food and Drink,Pubs and Bar,Restaurant,Activity Operator"
"Ballina Quay",,"","54.1322056","-9.137926","57 Rathmeel Lawns, Quignamanger, Ballina, F26 D9X2","Mayo","Activity,Fishing,Angling,River,Attraction,Discovery Point"
"Ballinafad Castle","http://www.megalithicireland.com/Ballinafad%20Castle.html","","54.0259909","-8.335817999999998","Gortalough, Ballinafad, ","Sligo","Activity,Experience,Castle,Attraction,Historic Houses and Castle"
"Ballinalacken Castle Country House Hotel and Restaurant","https://www.ballinalackencastle.com/dining/","00353657074025","53.04640969999999","-9.337845699999999","Coast Road, Craggycorradan East, Doolin, ","Clare","Activity,Food and Drink,Experience,Restaurant"
"Ballinamore Golf Club","https://www.ballinamoregolf.club/","00353872505031","54.0574153","-7.8345093",", Creevy, ","Leitrim","Golf Course,Activity,Experience,Golf,Food and Drink,Pubs and Bar"
"Ballinamuck Visitor Centre","https://www.facebook.com/profile.php?id=100063547151614","00353879613312","53.8653036","-7.7170386","Ballinamuck Community Hall, Main St, Shanmullagh, Ballinamuck, N39 Y7C1","Longford","Activity,Experience,Attraction,Historic Houses and Castle,Museums and Attraction,Nature and Wildlife"
"Ballinascorney Golf Club","https://www.ballinascorneygolfclub.com/","0035314937755","53.2648838","-6.279486599999998","Kilmashogue Dr, Taylorsgrange, Dublin, D12 W9D0","Dublin","Activity,Golf"
"Ballinasloe Golf Club","https://www.ballinasloegolfclub.ie/website/","00353909642126","53.3034923","-8.2411449","Ross Gloss, Clontuskert, Ballinasloe, ","Galway","Golf Course,Activity,Experience,Golf"
"Ballincollig Coaches","https://ballincolligcoaches.ie/","00353(0)214873828","51.892218","-8.627274","Woodview, Innicarra, , ","Cork","Activity,Experience,Transport,Coach,Road"
"Ballincollig Farmers' Market","https://www.facebook.com/thefarmersmarketballincollig","00353863623696","51.88853","-8.594319",", Ballincollig, ","Cork","Activity,Experience,Food and Drink,Restaurant,Shopping,Shopping Centres and Department Store,Food Shops "
"Regional Park Ballincollig","https://www.facebook.com/regparkcork/","00353214924000","51.89332344982622","-8.590253678893987",", Ballincollig, ","Cork","Activity,Walking ,Walking,Public Park,Nature and Wildlife"
"Ballindoon Abbey","http://www.megalithicireland.com/Ballindoon%20Priory.html","00353719161201","54.0849213343069","-8.3232664669314","Ballindoon, Ballymote, ","Sligo","Activity,Experience,Church Abbey,Monastery,Attraction,Churches, Abbeys and Monastery"
"Ursula Tramski Ceramics","http://www.smashingpots.com/","00353877735942","52.16369009999999","-10.3939452","Ballineanig, Ballineanig-Churchquarter, Ballyferriter Village, , ","Kerry","Activity,Experience,Craft,Shopping,Learning"
"Ballinesker Beach ","https://www.blueflag.global/show-site?siteId=6627","00353539196000","52.3994171","-6.357798000000001","Ballinruan, Curracloe, ","Wexford","Activity,Experience,Attraction,Beach"
"Ballinrobe Golf Club","https://www.ballinrobegolfclub.com","00353949541118","53.6487714","-9.1586371","Cloonacastle, Cloonark, Ballinrobe, ","Mayo","Golf Course,Activity,Experience,Golf,Driving Range,General,Golf Driving Range,Food and Drink,Restaurant,Activity Operator"
"Ballinrobe Racecourse","https://ballinroberacecourse.ie/","00353949541811","53.6382888","-9.244663599999999","Ballinrobe Racecourse, Rathcarreen, Ballinrobe, ","Mayo","Activity,Experience,Race Course,Venue,Sports Venues"
"Ballinskelligs Abbey",,"","51.8156395","-10.2714527","Ballinskelligs Abbey, Horse Island, Ballinskelligs, ","Kerry","Activity,Experience,Church Abbey,Monastery,Attraction,Churches, Abbeys and Monastery,Ruins,Historic Houses and Castle"
"Baile an Sceilg (Ballinskelligs)","https://www.blueflag.global/show-site?siteId=6640","00353667183500","51.8215577","-10.2721545","R566, Ballinskelligs, ","Kerry","Activity Experience Attraction Beach"
"Ballinteskin Par 3 Golf Course","https://par3golf.ie/","0035351422779","52.349225","-6.940909","Ballinteskin, New Ross, ","Wexford","Golf Course,Activity,Experience,Golf"
"Ballintubber Abbey","https://www.ballintubberabbey.ie/the-abbey/","00353949030934","53.7567222","-9.282756899999999",", Ballintubber, F12 W584","Mayo","Activity,Experience,Attraction,Historic Houses and Castle,Church Abbey,Monastery,Churches, Abbeys and Monastery"
"Ballintubbert Gardens & House","https://www.ballintubbert.com/gardens","00353419884771","52.9840283","-7.0852444","Ballintubbert House, Ballintubbert, R14 E954","Laois","Activity,Experience,Gardening,Nature and Wildlife,Learning,Gardens,Attraction,Garden,Historic Houses and Castle,Cafe,Food and Drink"
"Ballitore Library & Quaker Museum","https://kildarecoco.ie/library/Libraries/Ballitore/","00353598623344","53.009722","-6.814924","Mary Leadbetter House, Ballitore, ","Kildare","Activity,Experience,Attraction,Museums and Attraction"
"Ballyallia Lake","https://beachawards.ie/green-coast/sites/","","52.87699938441562","-8.971205075119656","Ballyalla Lake, Ennis, ","Clare","Activity,Experience,Attraction,Beach"
"Ballybeg Augustinian Priory",,"","52.2195337","-8.6698297","Castle-Land, , ","Cork","Activity,Experience,Church Abbey,Monastery,Attraction,Churches, Abbeys and Monastery"
"Ballybofey & Stranorlar Golf Club","https://www.facebook.com/p/Ballybofey-Stranorlar-Golf-Club-100057305235370/","00353749131093","54.80862200000001","-7.759137899999999","The Glebe, Glebe Upper, Stranorlar, F93 EPW1","Donegal","Golf Course,Activity,Experience,Golf,Driving Range,General,Golf Driving Range,Food and Drink,Restaurant,Food Shops ,Shopping"
"Ballybunion Beach",,"","52.5131367","-9.676015699999999","Ballybunion Beach, , ","Kerry","Activity,Experience,Walking ,Walking,Attraction,Beach,Castle,Historic Houses and Castle,Natural Landscape"
"Ballybunion Crazy Golf & Checkers Café","https://www.facebook.com/BallybunionCrazyGolf/","003536827882","52.49507389999999","-9.6571718","1, Ballyeagh, Ballybunnion, , ","Kerry","Activity,Experience,Golf,Activity Operator,Cafe,Food and Drink"
"Ballybunion Golf Club","https://www.ballybuniongolfclub.com/","003536827146","52.4952417","-9.6761365","Sandhill Rd, Ballybunion, V31 RX37","Kerry","Golf Course,Activity,Experience,Golf,Venue,Sports Venues,Food and Drink,Restaurant,Activity Operator"
"Ballybunion Health and Leisure Centre","http://ballybunionleisure.ie/","003536828111","52.5093775","-9.675144799999998","Sandhill Rd, Ballybunnion, Ballybunion, ","Kerry","Activity,Experience,Swimming,Swimming Pools and Water Park,Venue,Fitness and Leisure,Activity Operator"
"Ballybunion North","https://www.blueflag.global/show-site?siteId=6641","00353667183500","52.5131367","-9.676015699999999","Ballybunion Beach, , ","Kerry","Activity,Experience,Attraction,Beach"
"Ballybunion Seaweed Baths","https://www.ballybunion.ie/things-to-do/attractions/ballybunion-seaweed-baths.html","003536827469","52.5136158","-9.6748996","Ballybunnion, , ","Kerry","Activity,Experience,Pampering,Health Farm,Spa and Wellness,Specialised Retreat,Spa"
"Ballybunion South","https://www.blueflag.global/show-site?siteId=6642","00353667183500","52.5131367","-9.676015699999999","Ballybunion Beach, , ","Kerry","Activity,Experience,Attraction,Beach"
"Ballycarbery Castle","https://www.theringofkerry.com/ballycarbery-castle","00353646631633","51.9489036","-10.2586267","Carhan Lower, Cahersiveen, ","Kerry","Activity,Experience,Castle,Attraction,Historic Houses and Castle,Ruins"
"Ballycotton Island Lighthouse Tours","https://ballycottonseaadventures.com/ballycotton-sea-adventures/ballycotton-island-lighthouse-tours/","00353873963998","51.8269325","-8.0021572","Ticket Office: Inn by the Harbour, The Pier, Ballycotton, ","Cork","Activity,Experience,Walking ,Walking,Activity Operator,Boat,Tour"
"Ballycotton Sea Adventures","https://ballycottonseaadventures.com/","00353873963998","51.8273076","-8.0009527","The Pier, Ballycotton, ","Cork","Activity,Experience,Fishing,Angling,Activity Operator,Nature and Wildlife,Boat,Tour"
"Ballycuggeran","https://www.blueflag.global/show-site?siteId=6616","","52.8341047","-8.4660082","Craglea, Quarry Lane, , ","Clare","Activity,Experience,Fishing,Angling,Sailing,Activity Operator,Attraction,Beach,Nature and Wildlife"
"Mairead Stafford Art and Ceramics","
https://www.facebook.com/maireadstaffordartist.ie/","00353872029730","52.3835906","-6.449766599999998","The Old Mill Castlebridge, Castlebridge, ","Wexford","Activity,Experience,Craft,Shopping,Shopping Centres and Department Store,Food Shops "
"Ballyhack Castle","https://heritageireland.ie/places-to-visit/ballyhack-castle/","0035351389468","52.2459215","-6.967430200000001",", Ballyhack, Y34 TN56","Wexford","Activity,Experience,Attraction,Historic Houses and Castle,Castle,Tour"
"Ballyhass Adventure Group - Coachford","https://www.ballyhass.ie/","003532227773","51.9136164","-8.828759299999998","Lee Valley Harbour, Carhoo Upper, Carrigadrohid, , P12 AN29","Cork","Activity,Experience,Kayaking,Activity Operator,Adventure Park"
"Ballyhass Adventure Group - Mallow","https://www.ballyhass.ie/","003532227773","52.16907510000001","-8.799652","Unnamed Road, Ballyhass, County Cork, , P51 N990","Cork","Activity,Experience,Kayaking,Activity Operator,Adventure Park"
"Ballyhass Wake Park","https://www.ballyhass.ie/activity/wakepark-west-mallow/","003532227773","52.1691453","-8.799536800000002","1, Ballyhass, , ","Cork","Activity,Experience,Swimming,Swimming Pools and Water Park,Venue,Adventure Park,Activity Operator"
"Ballyhaunis Golf Club","https://www.facebook.com/ballyhaunisgolfclub/","00353949630014","53.7950592","-8.7696437","Coolnaha South, Coolnaha, Ballyhaunis, ","Mayo","Golf Course,Activity,Experience,Golf,Activity Operator"
"Ballyheigue Beach ","https://www.blueflag.global/show-site?siteId=6643","00353667183500","52.38855030000001","-9.835169299999999","Buncurrig, Ballyheigue, ","Kerry","Activity,Experience,Bird Watching,Nature and Wildlife,Fishing,Angling,Swimming,Swimming Pools and Water Park,Venue,Walking ,Walking,Attraction,Beach"
"Ballyheigue Castle Golf Course","https://www.ballyheiguecastlegolfclub.com/","00353667133555","52.39310087128214","-9.839889103179985",", Ballyheigue, ","Kerry","Golf Course,Activity,Experience,Golf,Activity Operator"
"Ballyhugh Art And Culture Centre Ceili Dance Workshops","http://homepage.eircom.net/~ballyhugh","00353499526044","54.11649607374844","-7.584019770051668",", Ballyconnell, ","Cavan","Activity,Experience,Learning,Activity Operator,Traditionally Irish"
"Ballyhugh Art and Culture Centre Painting","http://homepage.eircom.net/~ballyhugh/art.htm","00353499526044","54.116073791433664","-7.5839647358398",", Ballyconnell, ","Cavan","Activity,Experience,Craft,Shopping,Learning,Art Gallery,Attraction,Activity Operator"
"Ballyjennings Stables","https://www.horsetrekkingireland.com/","00353879404689","53.6122691","-9.1641231","Stables, Ballyjennings, Ballinrobe, F31 AC67","Mayo","Activity,Experience,Horse Riding,Equestrian"
"Ballykeefe Distillery","https://ballykeefedistillery.ie/","00353877004538","52.601898429812714","-7.376396379710195","Kyle, Ballykeefe, Cuffesgrange, , ","Kilkenny","Activity,Experience,Agriculture,Nature and Wildlife,Craft,Shopping,Learning,Attraction,Museums and Attraction,Artisan,Food and Drink,Restaurant,Tour"
"Ballykilcavan Brewery","https://www.ballykilcavan.com/","00353863484128","53.0165403","-7.117371299999999","Ballykilcavan, Stradbally, R32 Y0PK","Laois","Activity,Food and Drink,Experience,Restaurant,Attraction,Museums and Attraction,Artisan,Activity Operator,Food Trails and Tour,Tour"
"Ballykissane Monument",,"","52.1255557","-9.785472700000001","Ballykissane Monument, Ballykissane, , ","Kerry","Activity,Experience,Attraction,Public Sculpture"
"Great National Ballykisteen Golf Hotel","https://www.ballykisteenhotel.com/golf.html","003536233333","52.502387","-8.216743699999999","Gotinstown, Limerick Junction, E34 VK12","Tipperary","Golf Course,Activity,Experience,Golf,Driving Range,General,Golf Driving Range,Food and Drink,Restaurant"
"Ballyknocken Cookery School","https://ballyknocken.ie/","0035340444627","52.9770206","-6.1431475",", Glenealy, ","Wicklow","Activity,Experience,Cooking,Cookery,Learning,Food and Drink,Restaurant,Activity Operator,Local Produce"
"Ballyliffin Golf Club","https://www.ballyliffingolfclub.com","00353749376119","55.29241649999999","-7.373113599999999",", Ballyliffin, ","Donegal","Golf Course,Activity,Experience,Golf,Driving Range,General,Golf Driving Range,Food and Drink,Restaurant"
"The Rock Crystal Spa at Ballyliffin Lodge","https://www.ballyliffinlodge.com/spa","00353749378200","55.28011780000001","-7.3953474","Ballyliffin Lodge & Spa Hotel, Shore Rd, Ballyliffin, F93 XR25","Donegal","Activity,Experience,Pampering,Health Farm,Spa and Wellness,Specialised Retreat,Fitness and Leisure,Venue,Spa"
"Ballymacool Town Park","https://www.govisitdonegal.com/things-to-do/places-to-see/ballymacool-town-park","00353749194222","54.9440535","-7.760439700000001","W6VQ+QQ, Ballymacool, Letterkenny, ","Donegal","Activity Experience Walking  Walking Natural Landscape Attraction Public Park Nature and Wildlife"
"Ballymahon Greenway Cycles","https://ballymahongreenwaycycles.ie/","00353906438608","53.5671785","-7.761724199999999","Mostrim Rd, Ballymahon, N39 W6H0","Longford","Activity,Experience,Cycling,Activity Operator,Bike Rental"
"Ballymalis Castle",,"","52.0845424","-9.692437699999997","Ballymalis, , ","Kerry","Activity,Experience,Castle,Attraction,Historic Houses and Castle,Ruins"
"Ballymaloe Cookery School","https://www.ballymaloecookeryschool.ie/","00353214646785","51.8603674","-8.0334393",", Shanagarry, P25 R274","Cork","Activity,Experience,Cooking,Cookery,Learning,Cafe,Food and Drink,Activity Operator"
"Ballymaloe Cookery School Gardens","https://www.ballymaloecookeryschool.ie/","00353214646785","51.8603674","-8.0334393",", Shanagarry, P25 R274","Cork","Activity,Experience,Gardening,Nature and Wildlife,Learning,Gardens,Attraction,Garden,Cafe,Food and Drink,Activity Operator,Tour"
"Ballymaloe House Restaurant","https://www.ballymaloe.ie/our-restaurant-cork/our-restaurant","00353214652531","51.86524960000001","-8.0733299",", Shanagarry, ","Cork","Activity,Food and Drink,Experience,Restaurant,Artisan,Local Produce,Seafood,Vegetarian"
"Ballymascanlon Golf Course","https://www.ballymascanlon.com/golf.html","00353429358200","54.03155509999999","-6.352538499999999","Carlingford Rd, Ballymascanlan, Dundalk, A91 PF57","Louth","Golf Course,Activity,Experience,Golf,Food and Drink,Restaurant,Activity Operator"
"Ballymoney Golf Course","https://www.ballymoneygolfclub.ie/","00353539421976","52.6765938","-6.237385499999999","Prospect, Ballymoney, ","Wexford","Golf Course,Activity,Experience,Golf"
"Ballymoney North Beach",,"","52.6786721","-6.202994199999999","Ballymoney Beach, Ballymoney Lower, Ballymoney, ","Wexford","Activity,Experience,Attraction,Beach"
"Ballymoon Castle","https://carlowtourism.com/attraction/ballymoon-castle-2/","","52.700405","-6.906296700000001","Ballywilliamroe, , ","Carlow","Activity,Experience,Castle,Attraction,Historic Houses and Castle,Ruins"
"Ballymore Historic Features","http://www.ballymorehistoricfeatures.com","00353868246921","52.598346","-6.374547",", Ballymore, ","Wexford","Activity,Experience,Attraction,Museums and Attraction,Tour"
"Ballymorris Pottery","https://ballymorrispottery.ie/","0035361357118","52.6906707","-8.772129999999999","Ballymorris, Cratloe, V95 WP95","Clare","Activity,Experience,Craft,Shopping,Learning,Shopping Centres and Department Store,Activity Operator,Food Shops ,Tour"
"Ballymote and District Angling Club","https://www.facebook.com/p/Ballymote-District-Angling-Club-100063470980101/","00353868612225","54.08986135119296","-8.51710691790754","Ballymote and District Angling Club, Ballymote, ","Sligo","Activity,Experience,Fishing,Angling,Activity Operator,Nature and Wildlife"
"Ballymote Castle",,"","54.087625","-8.519724499999999",", Ballymote, ","Sligo","Activity,Experience,Castle,Attraction,Historic Houses and Castle,Ruins"
"Ballymurrin Quaker Farmstead","https://www.ballymurrinquakerfarmstead.eu/","0035340448206","52.9341601","-6.1066529","Ballymurrin House, Ballymurrin Lower, Kilbride, , ","Wicklow","Activity,Experience,Agriculture,Nature and Wildlife,Attraction,Historic Houses and Castle,Museums and Attraction"
"Ballynacarriga Castle","https://www.visitdunmanway.ie/ballincarigga-castle-lake--picnic-area.html","00353238833226","51.705571","-9.031647999999999","51°42'20.1""N 9°01'53.9""W, 3 St Patrick's Quay, Ballynacarriga, Bandon, ","Cork","Activity,Experience,Castle,Attraction,Historic Houses and Castle,Ruins"
"Ballynacourty Gardens",,"0035361396409","52.643399","-8.935327",", Ballysteen, ","Limerick","Activity,Experience,Gardening,Nature and Wildlife,Gardens,Attraction,Garden"
"Ballynahinch Castle Hotel and Gardens","https://www.ballynahinch-castle.com/","003539531006","53.460188","-9.862960999999999",", Recess, ","Galway","Activity,Experience,Restaurant,Walking ,Walking,Castle,Attraction,Historic Houses and Castle,Gardens,Garden,Food and Drink,Nature and Wildlife,Tour"
"Ballynamona Court Cairn","http://blog.waterfordmuseum.ie/2019/08/court-cairn-at-ballinamona-lower-old.html","","52.003606","-7.581712","Ballynmona, Halfway House, ","Waterford","Activity,Experience"
"Ballyneety Golf Club","https://www.ballyneetygolfclub.com/","0035361351881","52.59033100000001","-8.551449999999999",", Glen, V94 7W13","Limerick","Golf Course,Activity,Experience,Golf,Driving Range,General,Golf Driving Range,Food and Drink,Restaurant,Activity Operator"
"Ballyrafton Wood",,"","52.7216886568351","-7.22985378107382",", Ballyfoyle, ","Kilkenny","Activity,Experience,Public Park,Nature and Wildlife"
"Ballyrisode Beach","https://beachawards.ie/green-coast/sites/","","51.5113028","-9.662243199999999","Unnamed Rd, Co., Ballyrisode, , ","Cork","Activity,Experience,Attraction,Beach"
"The Palace Bar & Restaurant at Ballyroe Heights Hotel","https://www.ballyroe.com/dining/","00353667126796","52.29660499999999","-9.750987","Ballyroe, Tralee, V92 HT91","Kerry","Activity,Food and Drink,Experience,Restaurant,Pubs and Bar"
"Ballysaggartmore Towers","https://www.theirishplace.com/heritage/history-ballysaggartmore-towers","","52.1472156","-7.9631741","Southpark, , ","Waterford","Activity,Experience,Walking ,Walking,Attraction,Historic Houses and Castle,Castle,Ruins,Nature and Wildlife"
"Ballyscanlon Forest",,"","52.1676731","-7.214711900000002","Ballyscanlon, Ballyscanlan, Fennor, , ","Waterford","Activity,Experience,Forest Park,Park and Forest Walk,Walking,Nature and Wildlife"
"Ballyshannon and District Museum","https://www.facebook.com/Ballyshannonmuseum","00353876888789","54.5029882","-8.1920416","The Old Baracks, Townparks, Ballyshannon, ","Donegal","Activity,Experience,Attraction,Museums and Attraction"
"Ballyteigue Strand","http://www.fishingireland.net","","52.1714991663952","-6.58842914743204","Ballyteigue, Kilmore Quay, ","Wexford","Activity,Experience,Fishing,Angling,Attraction,Beach"
